OBJECTID,SITE_NAME,GAZ_NAME,GFE_ID,Y_LAT,X_LONG,GFE_TYPE,WS_CDE_20K,WS_CDE_50K,CU_NAME,FULL_CU_IN,SP_QUAL,CU_TYPE,POP_ID,FAZ_ACRO,MAZ_ACRO,JAZ_ACRO
1,OKANAGAN RIVER,OKANAGAN RIVER,442,49.07597717,-119.517786,Stream,300-432687-000000-000000-000000-000000-000000-000000-000000-000000-000000-000000-000000-000000-000000-000000-000000-000000-000000-000000-000000,310-000000-00000-00000-0000-0000-000-000-000-000-000-000,OKANAGAN_1.x,CK-1,CK,Current,48442,OK,ORWA,OK+ORWA
2,AHBAU CREEK,AHBAU CREEK,143,53.17461754,-122.4992091,Stream,100-478686-071246-000000-000000-000000-000000-000000-000000-000000-000000-000000-000000-000000-000000-000000-000000-000000-000000-000000-000000,100-481100-07300-00000-0000-0000-000-000-000-000-000-000,MIDDLE FRASER RIVER_SP_1.3,CK-10,CK,Current,47287,MFR,GStr,MFR+GStr
3,BAEZAEKO RIVER,BAEZAEKO RIVER,2455,53.13512263,-123.671478,Stream,100-500560-367242-000000-000000-000000-000000-000000-000000-000000-000000-000000-000000-000000-000000-000000-000000-000000-000000-000000-000000,170-365800-00000-00000-0000-0000-000-000-000-000-000-000,MIDDLE FRASER RIVER_SP_1.3,CK-10,CK,Current,44752,MFR,GStr,MFR+GStr
4,BAKER CREEK,BAKER CREEK,141,52.97297939,-122.5031667,Stream,100-458476-000000-000000-000000-000000-000000-000000-000000-000000-000000-000000-000000-000000-000000-000000-000000-000000-000000-000000-000000,100-460500-00000-00000-0000-0000-000-000-000-000-000-000,MIDDLE FRASER RIVER_SP_1.3,CK-10,CK,Current,47267,MFR,GStr,MFR+GStr
5,BRIDGE RIVER,BRIDGE RIVER,133,50.74950978,-121.9315407,Stream,100-239855-000000-000000-000000-000000-000000-000000-000000-000000-000000-000000-000000-000000-000000-000000-000000-000000-000000-000000-000000,100-241900-00000-00000-0000-0000-000-000-000-000-000-000,MIDDLE FRASER RIVER_SP_1.3,CK-10,CK,Current,47229,MFR,GStr,MFR+GStr
6,CARIBOO RIVER,CARIBOO RIVER,290,52.66253574,-121.6758417,Stream,100-458399-466616-000000-000000-000000-000000-000000-000000-000000-000000-000000-000000-000000-000000-000000-000000-000000-000000-000000-000000,160-466100-00000-00000-0000-0000-000-000-000-000-000-000,MIDDLE FRASER RIVER_SP_1.3,CK-10,CK,Current,46892,MFR,GStr,MFR+GStr
7,CHILAKO RIVER,CHILAKO RIVER,296,53.88643599,-122.9782513,Stream,100-567134-069486-000000-000000-000000-000000-000000-000000-000000-000000-000000-000000-000000-000000-000000-000000-000000-000000-000000-000000,180-069000-00000-00000-0000-0000-000-000-000-000-000-000,MIDDLE FRASER RIVER_SP_1.3,CK-10,CK,Current,46011,MFR,GStr,MFR+GStr
8,CHILCOTIN RIVER,CHILCOTIN RIVER,285,51.73995282,-122.4013093,Stream,100-342455-000000-000000-000000-000000-000000-000000-000000-000000-000000-000000-000000-000000-000000-000000-000000-000000-000000-000000-000000,150-000000-00000-00000-0000-0000-000-000-000-000-000-000,MIDDLE FRASER RIVER_SP_1.3,CK-10,CK,Current,46842,MFR,GStr,MFR+GStr
9,CHURN CREEK,CHURN CREEK,138,51.51880747,-122.2828028,Stream,100-321833-000000-000000-000000-000000-000000-000000-000000-000000-000000-000000-000000-000000-000000-000000-000000-000000-000000-000000-000000,100-324200-00000-00000-0000-0000-000-000-000-000-000-000,MIDDLE FRASER RIVER_SP_1.3,CK-10,CK,Current,47238,MFR,GStr,MFR+GStr
10,COTTONWOOD RIVER - UPPER,,2457,53.11670062,-122.611597,Stream Segment,100-478686-000000-000000-000000-000000-000000-000000-000000-000000-000000-000000-000000-000000-000000-000000-000000-000000-000000-000000-000000,100-481100-00000-00000-0000-0000-000-000-000-000-000-000,MIDDLE FRASER RIVER_SP_1.3,CK-10,CK,Current,44772,MFR,GStr,MFR+GStr
11,DRIFTWOOD RIVER,DRIFTWOOD RIVER,344,55.69922334,-126.2517217,Stream,100-567134-179319-815989-532920-992397-000000-000000-000000-000000-000000-000000-000000-000000-000000-000000-000000-000000-000000-000000-000000,182-819600-63300-99200-0000-0000-000-000-000-000-000-000,MIDDLE FRASER RIVER_SP_1.3,CK-10,CK,Current,45599,MFR,GStr,MFR+GStr
12,ENDAKO RIVER,ENDAKO RIVER,299,54.04879696,-124.9058691,Stream,100-567134-374775-948201-023010-000000-000000-000000-000000-000000-000000-000000-000000-000000-000000-000000-000000-000000-000000-000000-000000,180-374000-95200-01900-0000-0000-000-000-000-000-000-000,MIDDLE FRASER RIVER_SP_1.3,CK-10,CK,Current,45510,MFR,GStr,MFR+GStr
13,HORSEFLY RIVER,HORSEFLY RIVER,291,52.46617345,-121.388553,Stream,100-458399-638146-000000-000000-000000-000000-000000-000000-000000-000000-000000-000000-000000-000000-000000-000000-000000-000000-000000-000000,160-635400-00000-00000-0000-0000-000-000-000-000-000-000,MIDDLE FRASER RIVER_SP_1.3,CK-10,CK,Current,46901,MFR,GStr,MFR+GStr
14,LIGHTNING CREEK,LIGHTNING CREEK,144,53.01675821,-122.1130638,Stream,100-478686-388281-000000-000000-000000-000000-000000-000000-000000-000000-000000-000000-000000-000000-000000-000000-000000-000000-000000-000000,100-481100-38900-00000-0000-0000-000-000-000-000-000-000,MIDDLE FRASER RIVER_SP_1.3,CK-10,CK,Current,47297,MFR,GStr,MFR+GStr
15,MCKINLEY CREEK,MCKINLEY CREEK,2401,52.28916108,-121.0699408,Stream,100-458399-638146-468647-000000-000000-000000-000000-000000-000000-000000-000000-000000-000000-000000-000000-000000-000000-000000-000000-000000,160-635400-46400-00000-0000-0000-000-000-000-000-000-000,MIDDLE FRASER RIVER_SP_1.3,CK-10,CK,Current,45051,MFR,GStr,MFR+GStr
16,NARCOSLI CREEK,NARCOSLI CREEK,140,52.82196193,-122.4611347,Stream,100-444782-000000-000000-000000-000000-000000-000000-000000-000000-000000-000000-000000-000000-000000-000000-000000-000000-000000-000000-000000,100-446700-00000-00000-0000-0000-000-000-000-000-000-000,MIDDLE FRASER RIVER_SP_1.3,CK-10,CK,Current,47257,MFR,GStr,MFR+GStr
17,NAVER CREEK,NAVER CREEK,145,53.43100794,-122.6588323,Stream,100-520500-000000-000000-000000-000000-000000-000000-000000-000000-000000-000000-000000-000000-000000-000000-000000-000000-000000-000000-000000,100-522900-00000-00000-0000-0000-000-000-000-000-000-000,MIDDLE FRASER RIVER_SP_1.3,CK-10,CK,Current,47307,MFR,GStr,MFR+GStr
18,NAZKO RIVER,NAZKO RIVER,2456,53.12683553,-123.5668614,Stream,100-500560-326229-000000-000000-000000-000000-000000-000000-000000-000000-000000-000000-000000-000000-000000-000000-000000-000000-000000-000000,170-324300-00000-00000-0000-0000-000-000-000-000-000-000,MIDDLE FRASER RIVER_SP_1.3,CK-10,CK,Current,44762,MFR,GStr,MFR+GStr
19,SHOVEL CREEK,SHOVEL CREEK,300,54.1389693,-125.2902844,Stream,100-567134-374775-948201-023010-367618-000000-000000-000000-000000-000000-000000-000000-000000-000000-000000-000000-000000-000000-000000-000000,180-374000-95200-01900-4090-0000-000-000-000-000-000-000,MIDDLE FRASER RIVER_SP_1.3,CK-10,CK,Current,45520,MFR,GStr,MFR+GStr
20,STEIN RIVER,STEIN RIVER,126,50.28839911,-121.629278,Stream,100-195373-000000-000000-000000-000000-000000-000000-000000-000000-000000-000000-000000-000000-000000-000000-000000-000000-000000-000000-000000,100-197200-00000-00000-0000-0000-000-000-000-000-000-000,MIDDLE FRASER RIVER_SP_1.3,CK-10,CK,Current,47175,MFR,GStr,MFR+GStr
21,SWIFT RIVER,SWIFT RIVER,142,53.01562103,-122.1155448,Stream,100-478686-000000-000000-000000-000000-000000-000000-000000-000000-000000-000000-000000-000000-000000-000000-000000-000000-000000-000000-000000,100-481100-00000-00000-0000-0000-000-000-000-000-000-000,MIDDLE FRASER RIVER_SP_1.3,CK-10,CK,Current,2483,MFR,GStr,MFR+GStr
22,SWIFT RIVER,SWIFT RIVER,142,53.01562103,-122.1155448,Stream,100-478686-000000-000000-000000-000000-000000-000000-000000-000000-000000-000000-000000-000000-000000-000000-000000-000000-000000-000000-000000,100-481100-00000-00000-0000-0000-000-000-000-000-000-000,MIDDLE FRASER RIVER_SP_1.3,CK-10,CK,Current,47278,MFR,GStr,MFR+GStr
23,SWIFT RIVER,SWIFT RIVER,142,53.01562103,-122.1155448,Stream,100-478686-000000-000000-000000-000000-000000-000000-000000-000000-000000-000000-000000-000000-000000-000000-000000-000000-000000-000000-000000,100-481100-00000-00000-0000-0000-000-000-000-000-000-000,MIDDLE FRASER RIVER_SP_1.3,CK-10,CK,Current,47277,MFR,GStr,MFR+GStr
24,TASEKO LAKES,TASEKO LAKES,287,51.34893023,-123.619087,Lake,100-342455-328500-134035-000000-000000-000000-000000-000000-000000-000000-000000-000000-000000-000000-000000-000000-000000-000000-000000-000000,150-335700-13400-00000-0000-0000-000-000-000-000-000-000,MIDDLE FRASER RIVER_SP_1.3,CK-10,CK,Current,46861,MFR,GStr,MFR+GStr
25,WEST ROAD (BLACKWATER) RIVER,WEST ROAD (BLACKWATER) RIVER,294,53.31075482,-122.8757942,Stream,100-500560-000000-000000-000000-000000-000000-000000-000000-000000-000000-000000-000000-000000-000000-000000-000000-000000-000000-000000-000000,170-000000-00000-00000-0000-0000-000-000-000-000-000-000,MIDDLE FRASER RIVER_SP_1.3,CK-10,CK,Current,45991,MFR,GStr,MFR+GStr
26,YALAKOM RIVER,YALAKOM RIVER,134,50.86356005,-122.1725018,Stream,100-239855-151124-000000-000000-000000-000000-000000-000000-000000-000000-000000-000000-000000-000000-000000-000000-000000-000000-000000-000000,100-241900-16600-00000-0000-0000-000-000-000-000-000-000,MIDDLE FRASER RIVER_SP_1.3,CK-10,CK,Current,47234,MFR,GStr,MFR+GStr
27,CARIBOO RIVER,CARIBOO RIVER,290,52.66253574,-121.6758417,Stream,100-458399-466616-000000-000000-000000-000000-000000-000000-000000-000000-000000-000000-000000-000000-000000-000000-000000-000000-000000-000000,160-466100-00000-00000-0000-0000-000-000-000-000-000-000,MIDDLE FRASER RIVER_SU_1.3,CK-11,CK,Current,46891,MFR,GStr,MFR+GStr
28,CHILKO RIVER,CHILKO RIVER,286,52.09604998,-123.4608193,Stream,100-342455-328500-000000-000000-000000-000000-000000-000000-000000-000000-000000-000000-000000-000000-000000-000000-000000-000000-000000-000000,150-335700-00000-00000-0000-0000-000-000-000-000-000-000,MIDDLE FRASER RIVER_SU_1.3,CK-11,CK,Current,46851,MFR,GStr,MFR+GStr
29,ELKIN CREEK,ELKIN CREEK,288,51.68586278,-123.7218641,Stream,100-342455-328500-134035-287985-000000-000000-000000-000000-000000-000000-000000-000000-000000-000000-000000-000000-000000-000000-000000-000000,150-335700-13400-28700-0000-0000-000-000-000-000-000-000,MIDDLE FRASER RIVER_SU_1.3,CK-11,CK,Current,46871,MFR,GStr,MFR+GStr
30,KAZCHEK CREEK,KAZCHEK CREEK,316,54.88509993,-125.1705588,Stream,100-567134-179319-815989-532920-067591-000000-000000-000000-000000-000000-000000-000000-000000-000000-000000-000000-000000-000000-000000-000000,182-819600-63300-04800-0000-0000-000-000-000-000-000-000,MIDDLE FRASER RIVER_SU_1.3,CK-11,CK,Current,45567,MFR,GStr,MFR+GStr
31,KUZKWA RIVER,KUZKWA RIVER,312,54.7883416,-124.8784794,Stream,100-567134-179319-815989-290384-000000-000000-000000-000000-000000-000000-000000-000000-000000-000000-000000-000000-000000-000000-000000-000000,182-819600-32400-00000-0000-0000-000-000-000-000-000-000,MIDDLE FRASER RIVER_SU_1.3,CK-11,CK,Current,45555,MFR,GStr,MFR+GStr
32,KUZKWA RIVER,KUZKWA RIVER,312,54.7883416,-124.8784794,Stream,100-567134-179319-815989-290384-000000-000000-000000-000000-000000-000000-000000-000000-000000-000000-000000-000000-000000-000000-000000-000000,182-819600-32400-00000-0000-0000-000-000-000-000-000-000,MIDDLE FRASER RIVER_SU_1.3,CK-11,CK,Current,1416,MFR,GStr,MFR+GStr
33,MIDDLE RIVER,MIDDLE RIVER,2485,54.86647561,-125.1193052,Stream,100-567134-179319-815989-532920-000000-000000-000000-000000-000000-000000-000000-000000-000000-000000-000000-000000-000000-000000-000000-000000,182-819600-63300-00000-0000-0000-000-000-000-000-000-000,MIDDLE FRASER RIVER_SU_1.3,CK-11,CK,Current,44564,MFR,GStr,MFR+GStr
34,MITCHELL RIVER,MITCHELL RIVER,293,52.77836565,-120.80405,Stream,100-458399-740856-000000-000000-000000-000000-000000-000000-000000-000000-000000-000000-000000-000000-000000-000000-000000-000000-000000-000000,160-738500-00000-00000-0000-0000-000-000-000-000-000-000,MIDDLE FRASER RIVER_SU_1.3,CK-11,CK,Current,1756,MFR,GStr,MFR+GStr
35,NECHAKO RIVER,NECHAKO RIVER,295,53.91740699,-122.7149218,Stream,100-567134-000000-000000-000000-000000-000000-000000-000000-000000-000000-000000-000000-000000-000000-000000-000000-000000-000000-000000-000000,180-000000-00000-00000-0000-0000-000-000-000-000-000-000,MIDDLE FRASER RIVER_SU_1.3,CK-11,CK,Current,46001,MFR,GStr,MFR+GStr
36,ORMOND CREEK,ORMOND CREEK,298,54.08843558,-124.7478927,Stream,100-567134-374775-507094-000000-000000-000000-000000-000000-000000-000000-000000-000000-000000-000000-000000-000000-000000-000000-000000-000000,180-374000-51000-00000-0000-0000-000-000-000-000-000-000,MIDDLE FRASER RIVER_SU_1.3,CK-11,CK,Current,46024,MFR,GStr,MFR+GStr
37,PINCHI CREEK,PINCHI CREEK,308,54.56348059,-124.4889502,Stream,100-567134-179319-710832-000000-000000-000000-000000-000000-000000-000000-000000-000000-000000-000000-000000-000000-000000-000000-000000-000000,182-697600-00000-00000-0000-0000-000-000-000-000-000-000,MIDDLE FRASER RIVER_SU_1.3,CK-11,CK,Current,45547,MFR,GStr,MFR+GStr
38,QUESNEL RIVER,QUESNEL RIVER,289,52.97064226,-122.4980039,Stream,100-458399-000000-000000-000000-000000-000000-000000-000000-000000-000000-000000-000000-000000-000000-000000-000000-000000-000000-000000-000000,160-000000-00000-00000-0000-0000-000-000-000-000-000-000,MIDDLE FRASER RIVER_SU_1.3,CK-11,CK,Current,46881,MFR,GStr,MFR+GStr
39,SETON AND CAYOOSH CREEKS,,7990579,50.6687268,-121.9726099,Stream,100-233886-000000-000000-000000-000000-000000-000000-000000-000000-000000-000000-000000-000000-000000-000000-000000-000000-000000-000000-000000,100-235900-00000-00000-0000-0000-000-000-000-000-000-000,MIDDLE FRASER RIVER_SU_1.3,CK-11,CK,Current,47199,MFR,GStr,MFR+GStr
40,SETON RIVER,SETON RIVER,2476,50.68089255,-121.9287009,Stream,100-233886-000000-000000-000000-000000-000000-000000-000000-000000-000000-000000-000000-000000-000000-000000-000000-000000-000000-000000-000000,100-235900-00000-00000-0000-0000-000-000-000-000-000-000,MIDDLE FRASER RIVER_SU_1.3,CK-11,CK,Current,2178,MFR,GStr,MFR+GStr
41,STELLAKO RIVER,STELLAKO RIVER,297,54.05609747,-124.885053,Stream,100-567134-374775-948201-000000-000000-000000-000000-000000-000000-000000-000000-000000-000000-000000-000000-000000-000000-000000-000000-000000,180-374000-95200-00000-0000-0000-000-000-000-000-000-000,MIDDLE FRASER RIVER_SU_1.3,CK-11,CK,Current,46021,MFR,GStr,MFR+GStr
42,STUART RIVER,STUART RIVER,305,53.9883355,-123.5413751,Stream,100-567134-179319-000000-000000-000000-000000-000000-000000-000000-000000-000000-000000-000000-000000-000000-000000-000000-000000-000000-000000,182-000000-00000-00000-0000-0000-000-000-000-000-000-000,MIDDLE FRASER RIVER_SU_1.3,CK-11,CK,Current,45535,MFR,GStr,MFR+GStr
43,TACHIE RIVER,TACHIE RIVER,309,54.65906088,-124.7698341,Stream,100-567134-179319-815989-000000-000000-000000-000000-000000-000000-000000-000000-000000-000000-000000-000000-000000-000000-000000-000000-000000,182-819600-00000-00000-0000-0000-000-000-000-000-000-000,MIDDLE FRASER RIVER_SU_1.3,CK-11,CK,Current,45550,MFR,GStr,MFR+GStr
44,TASEKO RIVER,TASEKO RIVER,2636,52.00723728,-123.6777195,Stream,100-342455-328500-134035-000000-000000-000000-000000-000000-000000-000000-000000-000000-000000-000000-000000-000000-000000-000000-000000-000000,150-335700-13400-00000-0000-0000-000-000-000-000-000-000,MIDDLE FRASER RIVER_SU_1.3,CK-11,CK,Current,2507,MFR,GStr,MFR+GStr
45,ANTLER CREEK,ANTLER CREEK,160,53.2686981,-121.4512554,Stream,100-654493-746761-070913-000000-000000-000000-000000-000000-000000-000000-000000-000000-000000-000000-000000-000000-000000-000000-000000-000000,100-657000-76900-00000-0000-0000-000-000-000-000-000-000,UPPER FRASER RIVER_SP_1.3,CK-12,CK,Current,47457,UFR,GStr,UFR+GStr
46,BAD RIVER (JAMES CREEK),BAD RIVER (JAMES CREEK),154,54.29609714,-121.4422499,Stream,100-639480-270767-043982-000000-000000-000000-000000-000000-000000-000000-000000-000000-000000-000000-000000-000000-000000-000000-000000-000000,190-265100-03900-00000-0000-0000-000-000-000-000-000-000,UPPER FRASER RIVER_SP_1.3,CK-12,CK,Current,47397,UFR,GStr,UFR+GStr
47,BOWRON RIVER,BOWRON RIVER,157,54.05842395,-121.8264988,Stream,100-654493-000000-000000-000000-000000-000000-000000-000000-000000-000000-000000-000000-000000-000000-000000-000000-000000-000000-000000-000000,100-657000-00000-00000-0000-0000-000-000-000-000-000-000,UPPER FRASER RIVER_SP_1.3,CK-12,CK,Current,47427,UFR,GStr,UFR+GStr
48,CAPTAIN CREEK,CAPTAIN CREEK,153,54.28206312,-121.4565424,Stream,100-639480-270767-022412-000000-000000-000000-000000-000000-000000-000000-000000-000000-000000-000000-000000-000000-000000-000000-000000-000000,190-265100-01800-00000-0000-0000-000-000-000-000-000-000,UPPER FRASER RIVER_SP_1.3,CK-12,CK,Current,47387,UFR,GStr,UFR+GStr
49,DOME CREEK,DOME CREEK,163,53.7548563,-121.0226756,Stream,100-735802-000000-000000-000000-000000-000000-000000-000000-000000-000000-000000-000000-000000-000000-000000-000000-000000-000000-000000-000000,100-738400-00000-00000-0000-0000-000-000-000-000-000-000,UPPER FRASER RIVER_SP_1.3,CK-12,CK,Current,47487,UFR,GStr,UFR+GStr
50,DRISCOLL CREEK,DRISCOLL CREEK,2713,53.86635192,-121.4306428,Stream,100-696400-000000-000000-000000-000000-000000-000000-000000-000000-000000-000000-000000-000000-000000-000000-000000-000000-000000-000000-000000,100-698700-00000-00000-0000-0000-000-000-000-000-000-000,UPPER FRASER RIVER_SP_1.3,CK-12,CK,Current,125,UFR,GStr,UFR+GStr
51,EAST TWIN CREEK,EAST TWIN CREEK,170,53.45716956,-120.410232,Stream,100-805395-000000-000000-000000-000000-000000-000000-000000-000000-000000-000000-000000-000000-000000-000000-000000-000000-000000-000000-000000,100-807600-00000-00000-0000-0000-000-000-000-000-000-000,UPPER FRASER RIVER_SP_1.3,CK-12,CK,Current,926,UFR,GStr,UFR+GStr
52,FONTONIKO CREEK,FONTONIKO CREEK,155,54.36307609,-121.3461302,Stream,100-639480-270767-174191-000000-000000-000000-000000-000000-000000-000000-000000-000000-000000-000000-000000-000000-000000-000000-000000-000000,190-265100-16700-00000-0000-0000-000-000-000-000-000-000,UPPER FRASER RIVER_SP_1.3,CK-12,CK,Current,47407,UFR,GStr,UFR+GStr
53,FORGETMENOT CREEK,FORGETMENOT CREEK,2366,53.68778182,-120.4363387,Stream,100-772352-308489-000000-000000-000000-000000-000000-000000-000000-000000-000000-000000-000000-000000-000000-000000-000000-000000-000000-000000,100-774700-31100-00000-0000-0000-000-000-000-000-000-000,UPPER FRASER RIVER_SP_1.3,CK-12,CK,Current,44961,UFR,GStr,UFR+GStr
54,FRASER RIVER - ABOVE TETE JAUNE,FRASER RIVER,2477,52.97355516,-119.4298073,Stream Segment,100-000000-000000-000000-000000-000000-000000-000000-000000-000000-000000-000000-000000-000000-000000-000000-000000-000000-000000-000000-000000,100-000000-00000-00000-0000-0000-000-000-000-000-000-000,UPPER FRASER RIVER_SP_1.3,CK-12,CK,Current,44549,UFR,GStr,UFR+GStr
55,GOAT RIVER,GOAT RIVER,169,53.53268065,-120.5597127,Stream,100-790283-000000-000000-000000-000000-000000-000000-000000-000000-000000-000000-000000-000000-000000-000000-000000-000000-000000-000000-000000,100-792600-00000-00000-0000-0000-000-000-000-000-000-000,UPPER FRASER RIVER_SP_1.3,CK-12,CK,Current,47538,UFR,GStr,UFR+GStr
56,HAGGEN CREEK,HAGGEN CREEK,158,53.57652694,-121.6281092,Stream,100-654493-532663-000000-000000-000000-000000-000000-000000-000000-000000-000000-000000-000000-000000-000000-000000-000000-000000-000000-000000,100-657000-54000-00000-0000-0000-000-000-000-000-000-000,UPPER FRASER RIVER_SP_1.3,CK-12,CK,Current,47437,UFR,GStr,UFR+GStr
57,HERRICK CREEK,HERRICK CREEK,152,54.26984326,-121.4808982,Stream,100-639480-270767-000000-000000-000000-000000-000000-000000-000000-000000-000000-000000-000000-000000-000000-000000-000000-000000-000000-000000,190-265100-00000-00000-0000-0000-000-000-000-000-000-000,UPPER FRASER RIVER_SP_1.3,CK-12,CK,Current,47377,UFR,GStr,UFR+GStr
58,HOLLIDAY CREEK,HOLLIDAY CREEK,2034,53.16353609,-119.9201603,Stream,100-862175-000000-000000-000000-000000-000000-000000-000000-000000-000000-000000-000000-000000-000000-000000-000000-000000-000000-000000-000000,100-864700-00000-00000-0000-0000-000-000-000-000-000-000,UPPER FRASER RIVER_SP_1.3,CK-12,CK,Current,1207,UFR,GStr,UFR+GStr
59,HOLMES RIVER,HOLMES RIVER,173,53.25291676,-120.0703439,Stream,100-845489-000000-000000-000000-000000-000000-000000-000000-000000-000000-000000-000000-000000-000000-000000-000000-000000-000000-000000-000000,100-848200-00000-00000-0000-0000-000-000-000-000-000-000,UPPER FRASER RIVER_SP_1.3,CK-12,CK,Current,46931,UFR,GStr,UFR+GStr
60,HORSEY CREEK,HORSEY CREEK,175,53.096641,-119.7289439,Stream,100-879803-000000-000000-000000-000000-000000-000000-000000-000000-000000-000000-000000-000000-000000-000000-000000-000000-000000-000000-000000,100-882300-00000-00000-0000-0000-000-000-000-000-000-000,UPPER FRASER RIVER_SP_1.3,CK-12,CK,Current,46951,UFR,GStr,UFR+GStr
61,HUMBUG CREEK,HUMBUG CREEK,1992,53.75739285,-120.9038831,Stream,100-745929-024043-000000-000000-000000-000000-000000-000000-000000-000000-000000-000000-000000-000000-000000-000000-000000-000000-000000-000000,100-748500-03700-00000-0000-0000-000-000-000-000-000-000,UPPER FRASER RIVER_SP_1.3,CK-12,CK,Current,1269,UFR,GStr,UFR+GStr
62,ICE CREEK,,2460,54.3221303,-121.1650076,Stream,100-639480-270767-308653-085322-000000-000000-000000-000000-000000-000000-000000-000000-000000-000000-000000-000000-000000-000000-000000-000000,190-265100-30600-08200-0000-0000-000-000-000-000-000-000,UPPER FRASER RIVER_SP_1.3,CK-12,CK,Current,3075,UFR,GStr,UFR+GStr
63,INDIANPOINT CREEK,INDIANPOINT CREEK,159,53.44499384,-121.5683218,Stream,100-654493-625451-000000-000000-000000-000000-000000-000000-000000-000000-000000-000000-000000-000000-000000-000000-000000-000000-000000-000000,100-657000-63200-00000-0000-0000-000-000-000-000-000-000,UPPER FRASER RIVER_SP_1.3,CK-12,CK,Current,47447,UFR,GStr,UFR+GStr
64,KENNETH CREEK,KENNETH CREEK,161,53.92201243,-121.6629742,Stream,100-681581-000000-000000-000000-000000-000000-000000-000000-000000-000000-000000-000000-000000-000000-000000-000000-000000-000000-000000-000000,100-683800-00000-00000-0000-0000-000-000-000-000-000-000,UPPER FRASER RIVER_SP_1.3,CK-12,CK,Current,47467,UFR,GStr,UFR+GStr
65,MCGREGOR RIVER,MCGREGOR RIVER,149,54.17979354,-122.0339986,Stream,100-639480-000000-000000-000000-000000-000000-000000-000000-000000-000000-000000-000000-000000-000000-000000-000000-000000-000000-000000-000000,190-000000-00000-00000-0000-0000-000-000-000-000-000-000,UPPER FRASER RIVER_SP_1.3,CK-12,CK,Current,47347,UFR,GStr,UFR+GStr
66,MCKALE RIVER,MCKALE RIVER,172,53.39773873,-120.3425043,Stream,100-820527-000000-000000-000000-000000-000000-000000-000000-000000-000000-000000-000000-000000-000000-000000-000000-000000-000000-000000-000000,100-822300-00000-00000-0000-0000-000-000-000-000-000-000,UPPER FRASER RIVER_SP_1.3,CK-12,CK,Current,47548,UFR,GStr,UFR+GStr
67,MORKILL RIVER,MORKILL RIVER,168,53.61244394,-120.7040434,Stream,100-772352-000000-000000-000000-000000-000000-000000-000000-000000-000000-000000-000000-000000-000000-000000-000000-000000-000000-000000-000000,100-774700-00000-00000-0000-0000-000-000-000-000-000-000,UPPER FRASER RIVER_SP_1.3,CK-12,CK,Current,47528,UFR,GStr,UFR+GStr
68,NEVIN CREEK,NEVIN CREEK,174,53.19465648,-119.9783384,Stream,100-855764-000000-000000-000000-000000-000000-000000-000000-000000-000000-000000-000000-000000-000000-000000-000000-000000-000000-000000-000000,100-858300-00000-00000-0000-0000-000-000-000-000-000-000,UPPER FRASER RIVER_SP_1.3,CK-12,CK,Current,46941,UFR,GStr,UFR+GStr
69,OTTER CREEK,OTTER CREEK,151,54.27795152,-121.5187256,Stream,100-639480-255287-000000-000000-000000-000000-000000-000000-000000-000000-000000-000000-000000-000000-000000-000000-000000-000000-000000-000000,190-250000-00000-00000-0000-0000-000-000-000-000-000-000,UPPER FRASER RIVER_SP_1.3,CK-12,CK,Current,47367,UFR,GStr,UFR+GStr
70,PTARMIGAN CREEK,PTARMIGAN CREEK,166,53.70369743,-120.8911173,Stream,100-748616-000000-000000-000000-000000-000000-000000-000000-000000-000000-000000-000000-000000-000000-000000-000000-000000-000000-000000-000000,100-751200-00000-00000-0000-0000-000-000-000-000-000-000,UPPER FRASER RIVER_SP_1.3,CK-12,CK,Current,47517,UFR,GStr,UFR+GStr
71,ROBSON RIVER,ROBSON RIVER,2041,53.02720871,-119.2582373,Stream,100-918593-000000-000000-000000-000000-000000-000000-000000-000000-000000-000000-000000-000000-000000-000000-000000-000000-000000-000000-000000,100-920700-00000-00000-0000-0000-000-000-000-000-000-000,UPPER FRASER RIVER_SP_1.3,CK-12,CK,Current,2076,UFR,GStr,UFR+GStr
72,SALMON RIVER,SALMON RIVER,146,54.0669704,-122.5598206,Stream,100-591289-000000-000000-000000-000000-000000-000000-000000-000000-000000-000000-000000-000000-000000-000000-000000-000000-000000-000000-000000,100-593800-00000-00000-0000-0000-000-000-000-000-000-000,UPPER FRASER RIVER_SP_1.3,CK-12,CK,Current,47317,MFR,GStr,MFR+GStr
73,SEEBACH CREEK,SEEBACH CREEK,150,54.23922055,-121.8579609,Stream,100-639480-088242-000000-000000-000000-000000-000000-000000-000000-000000-000000-000000-000000-000000-000000-000000-000000-000000-000000-000000,190-084500-00000-00000-0000-0000-000-000-000-000-000-000,UPPER FRASER RIVER_SP_1.3,CK-12,CK,Current,47357,UFR,GStr,UFR+GStr
74,SLIM CREEK,SLIM CREEK,162,53.79833651,-121.1949476,Stream,100-717163-000000-000000-000000-000000-000000-000000-000000-000000-000000-000000-000000-000000-000000-000000-000000-000000-000000-000000-000000,100-719700-00000-00000-0000-0000-000-000-000-000-000-000,UPPER FRASER RIVER_SP_1.3,CK-12,CK,Current,47477,UFR,GStr,UFR+GStr
75,SMALL CREEK,SMALL CREEK,2043,53.04101994,-119.6163669,Stream,100-891664-000000-000000-000000-000000-000000-000000-000000-000000-000000-000000-000000-000000-000000-000000-000000-000000-000000-000000-000000,100-895300-00000-00000-0000-0000-000-000-000-000-000-000,UPPER FRASER RIVER_SP_1.3,CK-12,CK,Current,45325,UFR,GStr,UFR+GStr
76,SNOWSHOE CREEK,SNOWSHOE CREEK,167,53.62240596,-120.7625715,Stream,100-768118-000000-000000-000000-000000-000000-000000-000000-000000-000000-000000-000000-000000-000000-000000-000000-000000-000000-000000-000000,100-770300-00000-00000-0000-0000-000-000-000-000-000-000,UPPER FRASER RIVER_SP_1.3,CK-12,CK,Current,2318,UFR,GStr,UFR+GStr
77,SNOWSHOE CREEK,SNOWSHOE CREEK,167,53.62240596,-120.7625715,Stream,100-768118-000000-000000-000000-000000-000000-000000-000000-000000-000000-000000-000000-000000-000000-000000-000000-000000-000000-000000-000000,100-770300-00000-00000-0000-0000-000-000-000-000-000-000,UPPER FRASER RIVER_SP_1.3,CK-12,CK,Current,47519,UFR,GStr,UFR+GStr
78,SPAKWANIKO CREEK,SPAKWANIKO CREEK,156,54.32480607,-121.1919766,Stream,100-639480-270767-308653-000000-000000-000000-000000-000000-000000-000000-000000-000000-000000-000000-000000-000000-000000-000000-000000-000000,190-265100-30600-00000-0000-0000-000-000-000-000-000-000,UPPER FRASER RIVER_SP_1.3,CK-12,CK,Current,47417,UFR,GStr,UFR+GStr
79,SUS CREEK,SUS CREEK,1991,53.13891847,-121.168171,Stream,100-654493-907768-000000-000000-000000-000000-000000-000000-000000-000000-000000-000000-000000-000000-000000-000000-000000-000000-000000-000000,100-657000-89900-00000-0000-0000-000-000-000-000-000-000,UPPER FRASER RIVER_SP_1.3,CK-12,CK,Current,2468,UFR,GStr,UFR+GStr
80,SWIFT CREEK,SWIFT CREEK,176,52.84850248,-119.2992451,Stream,100-904773-602091-000000-000000-000000-000000-000000-000000-000000-000000-000000-000000-000000-000000-000000-000000-000000-000000-000000-000000,100-907400-60700-00000-0000-0000-000-000-000-000-000-000,UPPER FRASER RIVER_SP_1.3,CK-12,CK,Current,46961,UFR,GStr,UFR+GStr
81,SWIFT CREEK,SWIFT CREEK,176,52.84850248,-119.2992451,Stream,100-904773-602091-000000-000000-000000-000000-000000-000000-000000-000000-000000-000000-000000-000000-000000-000000-000000-000000-000000-000000,100-907400-60700-00000-0000-0000-000-000-000-000-000-000,UPPER FRASER RIVER_SP_1.3,CK-12,CK,Current,46962,UFR,GStr,UFR+GStr
82,TORPY RIVER,TORPY RIVER,164,53.73588068,-120.9010835,Stream,100-745929-000000-000000-000000-000000-000000-000000-000000-000000-000000-000000-000000-000000-000000-000000-000000-000000-000000-000000-000000,100-748500-00000-00000-0000-0000-000-000-000-000-000-000,UPPER FRASER RIVER_SP_1.3,CK-12,CK,Current,47497,UFR,GStr,UFR+GStr
83,TWIN CREEKS (COMBINED),,7990632,53.45204452,-120.4202321,Stream,,,UPPER FRASER RIVER_SP_1.3,CK-12,CK,Current,44497,UFR,GStr,UFR+GStr
84,WALKER CREEK,WALKER CREEK,165,53.79340735,-120.9023836,Stream,100-745929-072861-000000-000000-000000-000000-000000-000000-000000-000000-000000-000000-000000-000000-000000-000000-000000-000000-000000-000000,100-748500-08800-00000-0000-0000-000-000-000-000-000-000,UPPER FRASER RIVER_SP_1.3,CK-12,CK,Current,47507,UFR,GStr,UFR+GStr
85,WANSA CREEK,WANSA CREEK,148,53.94856287,-122.2801605,Stream,100-594120-148664-000000-000000-000000-000000-000000-000000-000000-000000-000000-000000-000000-000000-000000-000000-000000-000000-000000-000000,100-596500-15700-00000-0000-0000-000-000-000-000-000-000,UPPER FRASER RIVER_SP_1.3,CK-12,CK,Current,47337,UFR,GStr,UFR+GStr
86,WEST TWIN CREEK,WEST TWIN CREEK,171,53.44517202,-120.4271666,Stream,100-806680-000000-000000-000000-000000-000000-000000-000000-000000-000000-000000-000000-000000-000000-000000-000000-000000-000000-000000-000000,100-808800-00000-00000-0000-0000-000-000-000-000-000-000,UPPER FRASER RIVER_SP_1.3,CK-12,CK,Current,2762,UFR,GStr,UFR+GStr
87,WILLOW RIVER,WILLOW RIVER,147,54.0865377,-122.5078843,Stream,100-594120-000000-000000-000000-000000-000000-000000-000000-000000-000000-000000-000000-000000-000000-000000-000000-000000-000000-000000-000000,100-596500-00000-00000-0000-0000-000-000-000-000-000-000,UPPER FRASER RIVER_SP_1.3,CK-12,CK,Current,47327,UFR,GStr,UFR+GStr
88,ADAMS RIVER,ADAMS RIVER,220,50.89438552,-119.5541359,Stream,100-190442-999098-995997-058910-000000-000000-000000-000000-000000-000000-000000-000000-000000-000000-000000-000000-000000-000000-000000-000000,128-453400-00000-00000-0000-0000-000-000-000-000-000-000,SOUTH THOMPSON_SU_0.3,CK-13,CK,Current,275,STh,GStr,STh+GStr
89,ADAMS RIVER,ADAMS RIVER,220,50.89438552,-119.5541359,Stream,100-190442-999098-995997-058910-000000-000000-000000-000000-000000-000000-000000-000000-000000-000000-000000-000000-000000-000000-000000-000000,128-453400-00000-00000-0000-0000-000-000-000-000-000-000,SOUTH THOMPSON_SU_0.3,CK-13,CK,Current,46246,STh,GStr,STh+GStr
90,BRIDGE RIVER,BRIDGE RIVER,133,50.74950978,-121.9315407,Stream,100-239855-000000-000000-000000-000000-000000-000000-000000-000000-000000-000000-000000-000000-000000-000000-000000-000000-000000-000000-000000,100-241900-00000-00000-0000-0000-000-000-000-000-000-000,SOUTH THOMPSON_SU_0.3,CK-13,CK,Current,7479,STh,GStr,STh+GStr
91,CANOE CREEK,CANOE CREEK,239,50.75568366,-119.2215698,Stream,100-190442-999098-995997-893719-000000-000000-000000-000000-000000-000000-000000-000000-000000-000000-000000-000000-000000-000000-000000-000000,128-932800-00000-00000-0000-0000-000-000-000-000-000-000,SOUTH THOMPSON_SU_0.3,CK-13,CK,Current,7478,STh,GStr,STh+GStr
92,HIUIHILL CREEK,HIUIHILL CREEK,2373,50.9226209,-119.6337501,Stream,100-190442-999098-995997-058910-043375-000000-000000-000000-000000-000000-000000-000000-000000-000000-000000-000000-000000-000000-000000-000000,128-453400-03900-00000-0000-0000-000-000-000-000-000-000,SOUTH THOMPSON_SU_0.3,CK-13,CK,Current,7479,STh,GStr,STh+GStr
93,LITTLE RIVER,SOUTH THOMPSON RIVER,219,50.86552577,-119.6047619,Stream Segment,100-190442-999098-995997-000000-000000-000000-000000-000000-000000-000000-000000-000000-000000-000000-000000-000000-000000-000000-000000-000000,128-000000-00000-00000-0000-0000-000-000-000-000-000-000,SOUTH THOMPSON_SU_0.3,CK-13,CK,Current,46236,STh,GStr,STh+GStr
94,NIKWIKWAIA CREEK,NIKWIKWAIA CREEK,2388,50.93907051,-119.6560319,Stream,100-190442-999098-995997-058910-057838-000000-000000-000000-000000-000000-000000-000000-000000-000000-000000-000000-000000-000000-000000-000000,128-453400-05400-00000-0000-0000-000-000-000-000-000-000,SOUTH THOMPSON_SU_0.3,CK-13,CK,Current,7480,STh,GStr,STh+GStr
95,SOUTH THOMPSON RIVER,SOUTH THOMPSON RIVER,218,50.68051742,-120.3381363,Stream,100-190442-999098-000000-000000-000000-000000-000000-000000-000000-000000-000000-000000-000000-000000-000000-000000-000000-000000-000000-000000,128-000000-00000-00000-0000-0000-000-000-000-000-000-000,SOUTH THOMPSON_SU_0.3,CK-13,CK,Current,46226,STh,GStr,STh+GStr
96,TAPPEN CREEK,TAPPEN CREEK,236,50.77264598,-119.3334916,Stream,100-190442-999098-995997-943954-000000-000000-000000-000000-000000-000000-000000-000000-000000-000000-000000-000000-000000-000000-000000-000000,128-963600-00000-00000-0000-0000-000-000-000-000-000-000,SOUTH THOMPSON_SU_0.3,CK-13,CK,Current,7477,STh,GStr,STh+GStr
97,THOMPSON RIVER,THOMPSON RIVER,211,50.23556348,-121.582761,Stream,100-190442-000000-000000-000000-000000-000000-000000-000000-000000-000000-000000-000000-000000-000000-000000-000000-000000-000000-000000-000000,120-000000-00000-00000-0000-0000-000-000-000-000-000-000,SOUTH THOMPSON_SU_0.3,CK-13,CK,Current,46165,LTh,GStr,LTh+GStr
98,EAGLE RIVER,EAGLE RIVER,232,50.84350471,-119.0101709,Stream,100-190442-999098-995997-725308-000000-000000-000000-000000-000000-000000-000000-000000-000000-000000-000000-000000-000000-000000-000000-000000,128-831400-00000-00000-0000-0000-000-000-000-000-000-000,SOUTH THOMPSON_SU_1.3,CK-14,CK,Current,46366,STh,GStr,STh+GStr
99,SALMON RIVER,SALMON RIVER,237,50.71001714,-119.3065652,Stream,100-190442-999098-995997-990301-000000-000000-000000-000000-000000-000000-000000-000000-000000-000000-000000-000000-000000-000000-000000-000000,128-994100-00000-00000-0000-0000-000-000-000-000-000-000,SOUTH THOMPSON_SU_1.3,CK-14,CK,Current,46407,STh,GStr,STh+GStr
100,SCOTCH CREEK,SCOTCH CREEK,225,50.91532294,-119.5092526,Stream,100-190442-999098-995997-088471-000000-000000-000000-000000-000000-000000-000000-000000-000000-000000-000000-000000-000000-000000-000000-000000,128-478700-00000-00000-0000-0000-000-000-000-000-000-000,SOUTH THOMPSON_SU_1.3,CK-14,CK,Current,46296,STh,GStr,STh+GStr
101,SEYMOUR RIVER,SEYMOUR RIVER,229,51.238626,-118.9584543,Stream,100-190442-999098-995997-492860-000000-000000-000000-000000-000000-000000-000000-000000-000000-000000-000000-000000-000000-000000-000000-000000,128-700300-00000-00000-0000-0000-000-000-000-000-000-000,SOUTH THOMPSON_SU_1.3,CK-14,CK,Current,46336,STh,GStr,STh+GStr
102,SHUSWAP RIVER - LOWER,SHUSWAP RIVER,240,50.72484103,-119.0470528,Stream Segment,100-190442-999098-995997-730848-000000-000000-000000-000000-000000-000000-000000-000000-000000-000000-000000-000000-000000-000000-000000-000000,128-835500-00000-00000-0000-0000-000-000-000-000-000-000,SHUSWAP RIVER_SU_0.3,CK-15,CK,Current,46438,STh,GStr,STh+GStr
103,SHUSWAP RIVER - LOWER,SHUSWAP RIVER,240,50.72484103,-119.0470528,Stream Segment,100-190442-999098-995997-730848-000000-000000-000000-000000-000000-000000-000000-000000-000000-000000-000000-000000-000000-000000-000000-000000,128-835500-00000-00000-0000-0000-000-000-000-000-000-000,SHUSWAP RIVER_SU_0.3,CK-15,CK,Current,46437,STh,GStr,STh+GStr
104,SHUSWAP RIVER - MIDDLE,SHUSWAP RIVER,241,50.43388502,-118.7514875,Stream Segment,100-190442-999098-995997-730848-000000-000000-000000-000000-000000-000000-000000-000000-000000-000000-000000-000000-000000-000000-000000-000000,128-835500-00000-00000-0000-0000-000-000-000-000-000-000,SHUSWAP RIVER_SU_0.3,CK-15,CK,Current,46447,STh,GStr,STh+GStr
105,WAP CREEK,WAP CREEK,249,50.72649456,-118.615435,Stream,100-190442-999098-995997-730848-384566-000000-000000-000000-000000-000000-000000-000000-000000-000000-000000-000000-000000-000000-000000-000000,128-835500-36600-00000-0000-0000-000-000-000-000-000-000,SHUSWAP RIVER_SU_0.3,CK-15,CK,Current,46527,STh,GStr,STh+GStr
106,BESSETTE CREEK,BESSETTE CREEK,252,50.30662331,-118.8220734,Stream,100-190442-999098-995997-730848-543292-000000-000000-000000-000000-000000-000000-000000-000000-000000-000000-000000-000000-000000-000000-000000,128-835500-54100-00000-0000-0000-000-000-000-000-000-000,SOUTH THOMPSON-BESSETTE CREEK_SU_1.2,CK-16,CK,Current,46548,STh,GStr,STh+GStr
107,CREIGHTON CREEK,CREIGHTON CREEK,253,50.24639921,-118.9561116,Stream,100-190442-999098-995997-730848-543292-564986-000000-000000-000000-000000-000000-000000-000000-000000-000000-000000-000000-000000-000000-000000,128-835500-54100-51800-0000-0000-000-000-000-000-000-000,SOUTH THOMPSON-BESSETTE CREEK_SU_1.2,CK-16,CK,Current,812,STh,GStr,STh+GStr
108,DUTEAU CREEK,DUTEAU CREEK,254,50.25142097,-118.9602306,Stream,100-190442-999098-995997-730848-543292-538606-000000-000000-000000-000000-000000-000000-000000-000000-000000-000000-000000-000000-000000-000000,128-835500-54100-49500-0000-0000-000-000-000-000-000-000,SOUTH THOMPSON-BESSETTE CREEK_SU_1.2,CK-16,CK,Current,46568,STh,GStr,STh+GStr
109,HARRIS CREEK,HARRIS CREEK,255,50.19872664,-118.9926687,Stream,100-190442-999098-995997-730848-543292-811833-000000-000000-000000-000000-000000-000000-000000-000000-000000-000000-000000-000000-000000-000000,128-835500-54100-73600-0450-0000-000-000-000-000-000-000,SOUTH THOMPSON-BESSETTE CREEK_SU_1.2,CK-16,CK,Current,46578,STh,GStr,STh+GStr
110,BONAPARTE RIVER,BONAPARTE RIVER,216,50.73921386,-121.258846,Stream,100-190442-506118-000000-000000-000000-000000-000000-000000-000000-000000-000000-000000-000000-000000-000000-000000-000000-000000-000000-000000,120-506800-00000-00000-0000-0000-000-000-000-000-000-000,LOWER THOMPSON_SP_1.2,CK-17,CK,Current,46206,LTh,GStr,LTh+GStr
111,COLDWATER RIVER,COLDWATER RIVER,215,50.11490174,-120.8043058,Stream,100-190442-244975-337574-000000-000000-000000-000000-000000-000000-000000-000000-000000-000000-000000-000000-000000-000000-000000-000000-000000,120-246600-33700-00000-0000-0000-000-000-000-000-000-000,LOWER THOMPSON_SP_1.2,CK-17,CK,Current,46197,LTh,GStr,LTh+GStr
112,COLDWATER RIVER,COLDWATER RIVER,215,50.11490174,-120.8043058,Stream,100-190442-244975-337574-000000-000000-000000-000000-000000-000000-000000-000000-000000-000000-000000-000000-000000-000000-000000-000000-000000,120-246600-33700-00000-0000-0000-000-000-000-000-000-000,LOWER THOMPSON_SP_1.2,CK-17,CK,Current,46196,LTh,GStr,LTh+GStr
113,DEADMAN RIVER,DEADMAN RIVER,217,50.74444787,-120.9187363,Stream,100-190442-712025-000000-000000-000000-000000-000000-000000-000000-000000-000000-000000-000000-000000-000000-000000-000000-000000-000000-000000,120-714600-00000-00000-0000-0000-000-000-000-000-000-000,LOWER THOMPSON_SP_1.2,CK-17,CK,Current,46216,LTh,GStr,LTh+GStr
114,LOUIS CREEK,LOUIS CREEK,257,51.13754829,-120.1286132,Stream,100-190442-998192-171874-000000-000000-000000-000000-000000-000000-000000-000000-000000-000000-000000-000000-000000-000000-000000-000000-000000,129-175200-00000-00000-0000-0000-000-000-000-000-000-000,LOWER THOMPSON_SP_1.2,CK-17,CK,Current,46598,NTh,GStr,NTh+GStr
115,NICOLA RIVER,NICOLA RIVER,213,50.42767089,-121.3162004,Stream,100-190442-244975-000000-000000-000000-000000-000000-000000-000000-000000-000000-000000-000000-000000-000000-000000-000000-000000-000000-000000,120-246600-00000-00000-0000-0000-000-000-000-000-000-000,LOWER THOMPSON_SP_1.2,CK-17,CK,Current,46176,LTh,GStr,LTh+GStr
116,NICOLA RIVER - UPPER,NICOLA RIVER,2453,50.13744698,-120.709084,Stream Segment,100-190442-244975-000000-000000-000000-000000-000000-000000-000000-000000-000000-000000-000000-000000-000000-000000-000000-000000-000000-000000,120-246600-00000-00000-0000-0000-000-000-000-000-000-000,LOWER THOMPSON_SP_1.2,CK-17,CK,Current,44742,LTh,GStr,LTh+GStr
117,SPIUS CREEK,SPIUS CREEK,214,50.14632338,-121.0204424,Stream,100-190442-244975-232973-000000-000000-000000-000000-000000-000000-000000-000000-000000-000000-000000-000000-000000-000000-000000-000000-000000,120-246600-23400-00000-0000-0000-000-000-000-000-000-000,LOWER THOMPSON_SP_1.2,CK-17,CK,Current,46186,LTh,GStr,LTh+GStr
118,SPIUS CREEK,SPIUS CREEK,214,50.14632338,-121.0204424,Stream,100-190442-244975-232973-000000-000000-000000-000000-000000-000000-000000-000000-000000-000000-000000-000000-000000-000000-000000-000000-000000,120-246600-23400-00000-0000-0000-000-000-000-000-000-000,LOWER THOMPSON_SP_1.2,CK-17,CK,Current,46187,LTh,GStr,LTh+GStr
119,ALBREDA RIVER,ALBREDA RIVER,284,52.47887892,-119.1310516,Stream,100-190442-998192-823461-000000-000000-000000-000000-000000-000000-000000-000000-000000-000000-000000-000000-000000-000000-000000-000000-000000,129-838900-00000-00000-0000-0000-000-000-000-000-000-000,NORTH THOMPSON_SP_1.3,CK-18,CK,Current,290,NTh,GStr,NTh+GStr
120,BLUE RIVER,BLUE RIVER,281,52.10430428,-119.2795618,Stream,100-190442-998192-678593-000000-000000-000000-000000-000000-000000-000000-000000-000000-000000-000000-000000-000000-000000-000000-000000-000000,129-696400-00000-00000-0000-0000-000-000-000-000-000-000,NORTH THOMPSON_SP_1.3,CK-18,CK,Current,46801,NTh,GStr,NTh+GStr
121,DUNN CREEK,DUNN CREEK,263,51.45982552,-120.1479573,Stream,100-190442-998192-288800-076644-000000-000000-000000-000000-000000-000000-000000-000000-000000-000000-000000-000000-000000-000000-000000-000000,129-296400-08100-00000-0000-0000-000-000-000-000-000-000,NORTH THOMPSON_SP_1.3,CK-18,CK,Current,46658,NTh,GStr,NTh+GStr
122,FINN CREEK,FINN CREEK,279,51.89602394,-119.3246581,Stream,100-190442-998192-602714-000000-000000-000000-000000-000000-000000-000000-000000-000000-000000-000000-000000-000000-000000-000000-000000-000000,129-619200-00000-00000-0000-0000-000-000-000-000-000-000,NORTH THOMPSON_SP_1.3,CK-18,CK,Current,46790,NTh,GStr,NTh+GStr
123,LYON CREEK,LYON CREEK,278,51.87798775,-119.3089633,Stream,100-190442-998192-595721-000000-000000-000000-000000-000000-000000-000000-000000-000000-000000-000000-000000-000000-000000-000000-000000-000000,129-613200-00000-00000-0000-0000-000-000-000-000-000-000,NORTH THOMPSON_SP_1.3,CK-18,CK,Current,46780,NTh,GStr,NTh+GStr
124,MAD RIVER,MAD RIVER,272,51.67276056,-119.6073812,Stream,100-190442-998192-485781-000000-000000-000000-000000-000000-000000-000000-000000-000000-000000-000000-000000-000000-000000-000000-000000-000000,129-499600-00000-00000-0000-0000-000-000-000-000-000-000,NORTH THOMPSON_SP_1.3,CK-18,CK,Current,46730,NTh,GStr,NTh+GStr
125,MCTAGGART CREEK,MCTAGGART CREEK,264,51.41268846,-120.1281397,Stream,100-190442-998192-288800-076644-261917-000000-000000-000000-000000-000000-000000-000000-000000-000000-000000-000000-000000-000000-000000-000000,129-296400-08100-25900-0000-0000-000-000-000-000-000-000,NORTH THOMPSON_SP_1.3,CK-18,CK,Current,46668,NTh,GStr,NTh+GStr
126,BARRIERE RIVER,BARRIERE RIVER,258,51.17380574,-120.1386045,Stream,100-190442-998192-185576-000000-000000-000000-000000-000000-000000-000000-000000-000000-000000-000000-000000-000000-000000-000000-000000-000000,129-190100-00000-00000-0000-0000-000-000-000-000-000-000,NORTH THOMPSON_SU_1.3,CK-19,CK,Current,46608,NTh,GStr,NTh+GStr
127,CLEARWATER RIVER,CLEARWATER RIVER,266,51.63310955,-120.0807201,Stream,100-190442-998192-349877-000000-000000-000000-000000-000000-000000-000000-000000-000000-000000-000000-000000-000000-000000-000000-000000-000000,129-360400-00000-00000-0000-0000-000-000-000-000-000-000,NORTH THOMPSON_SU_1.3,CK-19,CK,Current,46688,NTh,GStr,NTh+GStr
128,LEMIEUX CREEK,LEMIEUX CREEK,262,51.42444746,-120.2008315,Stream,100-190442-998192-274759-000000-000000-000000-000000-000000-000000-000000-000000-000000-000000-000000-000000-000000-000000-000000-000000-000000,129-281900-00000-00000-0000-0000-000-000-000-000-000-000,NORTH THOMPSON_SU_1.3,CK-19,CK,Current,46648,NTh,GStr,NTh+GStr
129,MAHOOD RIVER,MAHOOD RIVER,268,51.91606125,-120.1943376,Stream,100-190442-998192-349877-237590-000000-000000-000000-000000-000000-000000-000000-000000-000000-000000-000000-000000-000000-000000-000000-000000,129-360400-23900-00000-0000-0000-000-000-000-000-000-000,NORTH THOMPSON_SU_1.3,CK-19,CK,Current,46708,NTh,GStr,NTh+GStr
130,MANN CREEK,MANN CREEK,265,51.5663568,-120.1363557,Stream,100-190442-998192-325873-000000-000000-000000-000000-000000-000000-000000-000000-000000-000000-000000-000000-000000-000000-000000-000000-000000,129-335800-00000-00000-0000-0000-000-000-000-000-000-000,NORTH THOMPSON_SU_1.3,CK-19,CK,Current,46678,NTh,GStr,NTh+GStr
131,NORTH THOMPSON RIVER,NORTH THOMPSON RIVER,256,50.68178401,-120.3418459,Stream,100-190442-998192-000000-000000-000000-000000-000000-000000-000000-000000-000000-000000-000000-000000-000000-000000-000000-000000-000000-000000,129-000000-00000-00000-0000-0000-000-000-000-000-000-000,NORTH THOMPSON_SU_1.3,CK-19,CK,Current,46588,NTh,GStr,NTh+GStr
132,RAFT RIVER,RAFT RIVER,269,51.63206515,-119.9923028,Stream,100-190442-998192-368776-000000-000000-000000-000000-000000-000000-000000-000000-000000-000000-000000-000000-000000-000000-000000-000000-000000,129-379800-00000-00000-0000-0000-000-000-000-000-000-000,NORTH THOMPSON_SU_1.3,CK-19,CK,Current,46718,NTh,GStr,NTh+GStr
133,CAMPBELL RIVER,CAMPBELL RIVER,677,49.01265739,-122.777982,Stream,900-000584-000000-000000-000000-000000-000000-000000-000000-000000-000000-000000-000000-000000-000000-000000-000000-000000-000000-000000-000000,900-000500-00000-00000-0000-0000-000-000-000-000-000-000,BOUNDARY BAY_FA_0.3,CK-2,CK,VREQ[Current],586,BB,GStr,BB+GStr
134,NICOMEKL RIVER,NICOMEKL RIVER,678,49.05821785,-122.8697314,Stream,900-004391-000000-000000-000000-000000-000000-000000-000000-000000-000000-000000-000000-000000-000000-000000-000000-000000-000000-000000-000000,900-004300-00000-00000-0000-0000-000-000-000-000-000-000,BOUNDARY BAY_FA_0.3,CK-2,CK,VREQ[Current],1840,BB,GStr,BB+GStr
135,SERPENTINE RIVER,SERPENTINE RIVER,681,49.08322704,-122.850271,Stream,900-005473-000000-000000-000000-000000-000000-000000-000000-000000-000000-000000-000000-000000-000000-000000-000000-000000-000000-000000-000000,900-005500-00000-00000-0000-0000-000-000-000-000-000-000,BOUNDARY BAY_FA_0.3,CK-2,CK,VREQ[Current],2168,BB,GStr,BB+GStr
136,ANGUS CREEK,ANGUS CREEK,771,49.50711289,-123.7565966,Stream,900-169940-000000-000000-000000-000000-000000-000000-000000-000000-000000-000000-000000-000000-000000-000000-000000-000000-000000-000000-000000,900-166800-00000-00000-0000-0000-000-000-000-000-000-000,SOUTHERN MAINLAND-GEORGIA STRAIT_FA_0.x,CK-20,CK,Current,48792,SC,GStr,SC+GStr
137,ASHLU CREEK,ASHLU CREEK,728,49.89703214,-123.3024236,Stream,900-105574-372968-000000-000000-000000-000000-000000-000000-000000-000000-000000-000000-000000-000000-000000-000000-000000-000000-000000-000000,900-097600-38300-00000-0000-0000-000-000-000-000-000-000,SOUTHERN MAINLAND-GEORGIA STRAIT_FA_0.x,CK-20,CK,Current,50034,SC,GStr,SC+GStr
138,BRANCH 100 CREEK,,729,49.92562258,-123.2907189,Stream,900-105574-410965-000000-000000-000000-000000-000000-000000-000000-000000-000000-000000-000000-000000-000000-000000-000000-000000-000000-000000,900-097600-41900-00000-0000-0000-000-000-000-000-000-000,SOUTHERN MAINLAND-GEORGIA STRAIT_FA_0.x,CK-20,CK,Current,50039,SC,GStr,SC+GStr
139,BREM RIVER,BREM RIVER,813,50.43562185,-124.6663421,Stream,900-358652-000000-000000-000000-000000-000000-000000-000000-000000-000000-000000-000000-000000-000000-000000-000000-000000-000000-000000-000000,900-357900-00000-00000-0000-0000-000-000-000-000-000-000,SOUTHERN MAINLAND-GEORGIA STRAIT_FA_0.x,CK-20,CK,Current,50508,SC,GStr,SC+GStr
140,BREM RIVER TRIBUTARY,,814,50.44015226,-124.6670776,Stream,900-358652-020005-000000-000000-000000-000000-000000-000000-000000-000000-000000-000000-000000-000000-000000-000000-000000-000000-000000-000000,900-357900-01700-00000-0000-0000-000-000-000-000-000-000,SOUTHERN MAINLAND-GEORGIA STRAIT_FA_0.x,CK-20,CK,Current,50518,SC,GStr,SC+GStr
141,BRITTAIN RIVER,BRITTAIN RIVER,784,49.99745038,-124.0096571,Stream,900-247763-000000-000000-000000-000000-000000-000000-000000-000000-000000-000000-000000-000000-000000-000000-000000-000000-000000-000000-000000,900-244600-00000-00000-0000-0000-000-000-000-000-000-000,SOUTHERN MAINLAND-GEORGIA STRAIT_FA_0.x,CK-20,CK,Current,48922,SC,GStr,SC+GStr
142,BROTHERS CREEK,BROTHERS CREEK,698,49.32803002,-123.1306626,Stream,900-083503-029048-000000-000000-000000-000000-000000-000000-000000-000000-000000-000000-000000-000000-000000-000000-000000-000000-000000-000000,900-071100-03400-00000-0000-0000-000-000-000-000-000-000,SOUTHERN MAINLAND-GEORGIA STRAIT_FA_0.x,CK-20,CK,Current,49878,SC,GStr,SC+GStr
143,CARLSON CREEK,CARLSON CREEK,768,49.54193053,-123.7996671,Stream,900-165880-000000-000000-000000-000000-000000-000000-000000-000000-000000-000000-000000-000000-000000-000000-000000-000000-000000-000000-000000,900-162600-00000-00000-0000-0000-000-000-000-000-000-000,SOUTHERN MAINLAND-GEORGIA STRAIT_FA_0.x,CK-20,CK,Current,48762,SC,GStr,SC+GStr
144,CHEAKAMUS RIVER,CHEAKAMUS RIVER,719,49.77959275,-123.1776542,Stream,900-105574-143635-000000-000000-000000-000000-000000-000000-000000-000000-000000-000000-000000-000000-000000-000000-000000-000000-000000-000000,900-097600-12900-00000-0000-0000-000-000-000-000-000-000,SOUTHERN MAINLAND-GEORGIA STRAIT_FA_0.x,CK-20,CK,Current,49989,SC,GStr,SC+GStr
145,CHUK-CHUK CREEK,,734,49.97572484,-123.3063205,Stream,900-105574-484439-022011-000000-000000-000000-000000-000000-000000-000000-000000-000000-000000-000000-000000-000000-000000-000000-000000-000000,900-097600-48600-00000-0000-0000-000-000-000-000-000-000,SOUTHERN MAINLAND-GEORGIA STRAIT_FA_0.x,CK-20,CK,Current,50059,SC,GStr,SC+GStr
146,HASTINGS CREEK,HASTINGS CREEK,694,49.32420603,-123.0279508,Stream,900-079298-151073-000000-000000-000000-000000-000000-000000-000000-000000-000000-000000-000000-000000-000000-000000-000000-000000-000000-000000,900-066900-15500-00000-0000-0000-000-000-000-000-000-000,SOUTHERN MAINLAND-GEORGIA STRAIT_FA_0.x,CK-20,CK,Current,49858,SC,GStr,SC+GStr
147,INDIAN RIVER,INDIAN RIVER,688,49.47103553,-122.8831046,Stream,900-068008-000000-000000-000000-000000-000000-000000-000000-000000-000000-000000-000000-000000-000000-000000-000000-000000-000000-000000-000000,900-056000-00000-00000-0000-0000-000-000-000-000-000-000,SOUTHERN MAINLAND-GEORGIA STRAIT_FA_0.x,CK-20,CK,Current,49828,SC,GStr,SC+GStr
148,JULY CREEK,,733,49.99311586,-123.3303162,Stream,900-105574-000000-000000-000000-000000-000000-000000-000000-000000-000000-000000-000000-000000-000000-000000-000000-000000-000000-000000-000000,900-097600-51900-00000-0000-0000-000-000-000-000-000-000,SOUTHERN MAINLAND-GEORGIA STRAIT_FA_0.x,CK-20,CK,Current,50054,SC,GStr,SC+GStr
149,KLITE RIVER,KLITE RIVER,809,50.51142405,-124.3294549,Stream,900-350660-051414-000000-000000-000000-000000-000000-000000-000000-000000-000000-000000-000000-000000-000000-000000-000000-000000-000000-000000,900-349300-03300-00000-0000-0000-000-000-000-000-000-000,SOUTHERN MAINLAND-GEORGIA STRAIT_FA_0.x,CK-20,CK,Current,50468,SC,GStr,SC+GStr
150,LITTLE TOBA RIVER,LITTLE TOBA RIVER,810,50.50970912,-124.2075503,Stream,900-350660-230341-000000-000000-000000-000000-000000-000000-000000-000000-000000-000000-000000-000000-000000-000000-000000-000000-000000-000000,900-349300-24400-00000-0000-0000-000-000-000-000-000-000,SOUTHERN MAINLAND-GEORGIA STRAIT_FA_0.x,CK-20,CK,Current,50478,SC,GStr,SC+GStr
151,LYNN CREEK,LYNN CREEK,693,49.30037473,-123.0391339,Stream,900-079298-000000-000000-000000-000000-000000-000000-000000-000000-000000-000000-000000-000000-000000-000000-000000-000000-000000-000000-000000,900-066900-00000-00000-0000-0000-000-000-000-000-000-000,SOUTHERN MAINLAND-GEORGIA STRAIT_FA_0.x,CK-20,CK,Current,49853,SC,GStr,SC+GStr
152,MAMQUAM RIVER,MAMQUAM RIVER,709,49.73344309,-123.1546623,Stream,900-105574-066486-000000-000000-000000-000000-000000-000000-000000-000000-000000-000000-000000-000000-000000-000000-000000-000000-000000-000000,900-097600-05100-00000-0000-0000-000-000-000-000-000-000,SOUTHERN MAINLAND-GEORGIA STRAIT_FA_0.x,CK-20,CK,Current,49933,SC,GStr,SC+GStr
153,MAMQUAM SPAWNING CHANNEL,,715,49.73160998,-123.1310178,Artificial Channel,900-105574-066486-000000-000000-000000-000000-000000-000000-000000-000000-000000-000000-000000-000000-000000-000000-000000-000000-000000-000000,900-097600-05100-00000-0000-0000-000-000-000-000-000-000,SOUTHERN MAINLAND-GEORGIA STRAIT_FA_0.x,CK-20,CK,Current,49969,SC,GStr,SC+GStr
154,MASHITER CREEK,MASHITER CREEK,714,49.7334882,-123.1143048,Stream,900-105574-066486-101671-000000-000000-000000-000000-000000-000000-000000-000000-000000-000000-000000-000000-000000-000000-000000-000000-000000,900-097600-05100-08900-0000-0000-000-000-000-000-000-000,SOUTHERN MAINLAND-GEORGIA STRAIT_FA_0.x,CK-20,CK,Current,49963,SC,GStr,SC+GStr
155,MCNAB CREEK,MCNAB CREEK,742,49.56191366,-123.3805412,Stream,900-113519-000000-000000-000000-000000-000000-000000-000000-000000-000000-000000-000000-000000-000000-000000-000000-000000-000000-000000-000000,900-106300-00000-00000-0000-0000-000-000-000-000-000-000,SOUTHERN MAINLAND-GEORGIA STRAIT_FA_0.x,CK-20,CK,Current,50108,SC,GStr,SC+GStr
156,NOONS CREEK,NOONS CREEK,685,49.28409034,-122.8348874,Stream,900-057239-000000-000000-000000-000000-000000-000000-000000-000000-000000-000000-000000-000000-000000-000000-000000-000000-000000-000000-000000,900-045300-00000-00000-0000-0000-000-000-000-000-000-000,SOUTHERN MAINLAND-GEORGIA STRAIT_FA_0.x,CK-20,CK,Current,49813,SC,GStr,SC+GStr
157,PENDER HARBOUR CREEKS,,7990607,49.64052568,-123.9858542,Stream,,,SOUTHERN MAINLAND-GEORGIA STRAIT_FA_0.x,CK-20,CK,Current,48717,SC,GStr,SC+GStr
158,QUATAM RIVER,QUATAM RIVER,815,50.37826932,-124.9380533,Stream,900-369411-000000-000000-000000-000000-000000-000000-000000-000000-000000-000000-000000-000000-000000-000000-000000-000000-000000-000000-000000,900-368900-00000-00000-0000-0000-000-000-000-000-000-000,SOUTHERN MAINLAND-GEORGIA STRAIT_FA_0.x,CK-20,CK,Current,50528,SC,GStr,SC+GStr
159,RICHARDS CREEK,,687,49.3846381,-122.8631686,Stream,900-064646-000000-000000-000000-000000-000000-000000-000000-000000-000000-000000-000000-000000-000000-000000-000000-000000-000000-000000-000000,900-052700-00000-00000-0000-0000-000-000-000-000-000-000,SOUTHERN MAINLAND-GEORGIA STRAIT_FA_0.x,CK-20,CK,Current,49823,SC,GStr,SC+GStr
160,ROBERTS CREEK,ROBERTS CREEK,757,49.41940439,-123.6418243,Stream,900-125537-000000-000000-000000-000000-000000-000000-000000-000000-000000-000000-000000-000000-000000-000000-000000-000000-000000-000000-000000,900-118200-00000-00000-0000-0000-000-000-000-000-000-000,SOUTHERN MAINLAND-GEORGIA STRAIT_FA_0.x,CK-20,CK,Current,48642,SC,GStr,SC+GStr
161,SEYMOUR RIVER,SEYMOUR RIVER,691,49.30187968,-123.0246177,Stream,900-078372-000000-000000-000000-000000-000000-000000-000000-000000-000000-000000-000000-000000-000000-000000-000000-000000-000000-000000-000000,900-066100-00000-00000-0000-0000-000-000-000-000-000-000,SOUTHERN MAINLAND-GEORGIA STRAIT_FA_0.x,CK-20,CK,Current,49843,SC,GStr,SC+GStr
162,SHANNON CREEK,SHANNON CREEK,772,49.67508422,-123.1614743,Stream,900-102436-000000-000000-000000-000000-000000-000000-000000-000000-000000-000000-000000-000000-000000-000000-000000-000000-000000-000000-000000,900-090400-00000-00000-0000-0000-000-000-000-000-000-000,SOUTHERN MAINLAND-GEORGIA STRAIT_FA_0.x,CK-20,CK,Current,48802,SC,GStr,SC+GStr
163,SHOVELNOSE CREEK,SHOVELNOSE CREEK,737,50.06843945,-123.3435775,Stream,900-105574-624674-000000-000000-000000-000000-000000-000000-000000-000000-000000-000000-000000-000000-000000-000000-000000-000000-000000-000000,900-097600-63100-00000-0000-0000-000-000-000-000-000-000,SOUTHERN MAINLAND-GEORGIA STRAIT_FA_0.x,CK-20,CK,Current,50074,SC,GStr,SC+GStr
164,SKWAWKA RIVER,SKWAWKA RIVER,782,50.20767865,-123.987827,Stream,900-236275-000000-000000-000000-000000-000000-000000-000000-000000-000000-000000-000000-000000-000000-000000-000000-000000-000000-000000-000000,900-233000-00000-00000-0000-0000-000-000-000-000-000-000,SOUTHERN MAINLAND-GEORGIA STRAIT_FA_0.x,CK-20,CK,Current,48902,SC,GStr,SC+GStr
165,SPRING CREEK,,736,50.02062589,-123.3529787,Stream,900-105574-560641-000000-000000-000000-000000-000000-000000-000000-000000-000000-000000-000000-000000-000000-000000-000000-000000-000000-000000,900-097600-56300-00000-0000-0000-000-000-000-000-000-000,SOUTHERN MAINLAND-GEORGIA STRAIT_FA_0.x,CK-20,CK,Current,50069,SC,GStr,SC+GStr
166,SQUAMISH RIVER,SQUAMISH RIVER,708,49.68522032,-123.1807758,Stream,900-105574-000000-000000-000000-000000-000000-000000-000000-000000-000000-000000-000000-000000-000000-000000-000000-000000-000000-000000-000000,900-097600-00000-00000-0000-0000-000-000-000-000-000-000,SOUTHERN MAINLAND-GEORGIA STRAIT_FA_0.x,CK-20,CK,Current,49928,SC,GStr,SC+GStr
167,STAWAMUS RIVER,STAWAMUS RIVER,705,49.68830658,-123.1547382,Stream,900-102882-000000-000000-000000-000000-000000-000000-000000-000000-000000-000000-000000-000000-000000-000000-000000-000000-000000-000000-000000,900-091000-00000-00000-0000-0000-000-000-000-000-000-000,SOUTHERN MAINLAND-GEORGIA STRAIT_FA_0.x,CK-20,CK,Current,49912,SC,GStr,SC+GStr
168,TAHUMMING RIVER,TAHUMMING RIVER,812,50.49277248,-124.3873646,Stream,900-351670-000000-000000-000000-000000-000000-000000-000000-000000-000000-000000-000000-000000-000000-000000-000000-000000-000000-000000-000000,900-350700-00000-00000-0000-0000-000-000-000-000-000-000,SOUTHERN MAINLAND-GEORGIA STRAIT_FA_0.x,CK-20,CK,Current,50498,SC,GStr,SC+GStr
169,TENDERFOOT CREEK,TENDERFOOT CREEK,724,49.82430149,-123.1486781,Stream,900-105574-143635-077212-000000-000000-000000-000000-000000-000000-000000-000000-000000-000000-000000-000000-000000-000000-000000-000000-000000,900-097600-12900-07804-0000-0000-000-000-000-000-000-000,SOUTHERN MAINLAND-GEORGIA STRAIT_FA_0.x,CK-20,CK,Current,50014,SC,GStr,SC+GStr
170,THEODOSIA RIVER,THEODOSIA RIVER,800,50.08042829,-124.6548457,Stream,900-311867-000000-000000-000000-000000-000000-000000-000000-000000-000000-000000-000000-000000-000000-000000-000000-000000-000000-000000-000000,900-309400-00000-00000-0000-0000-000-000-000-000-000-000,SOUTHERN MAINLAND-GEORGIA STRAIT_FA_0.x,CK-20,CK,Current,49082,SC,GStr,SC+GStr
171,TOBA RIVER,TOBA RIVER,808,50.48861581,-124.3658656,Stream,900-350660-000000-000000-000000-000000-000000-000000-000000-000000-000000-000000-000000-000000-000000-000000-000000-000000-000000-000000-000000,900-349300-00000-00000-0000-0000-000-000-000-000-000-000,SOUTHERN MAINLAND-GEORGIA STRAIT_FA_0.x,CK-20,CK,Current,49802,SC,GStr,SC+GStr
172,TZOONIE RIVER,TZOONIE RIVER,776,49.78782449,-123.7235744,Stream,900-198810-000000-000000-000000-000000-000000-000000-000000-000000-000000-000000-000000-000000-000000-000000-000000-000000-000000-000000-000000,900-195000-00000-00000-0000-0000-000-000-000-000-000-000,SOUTHERN MAINLAND-GEORGIA STRAIT_FA_0.x,CK-20,CK,Current,48842,SC,GStr,SC+GStr
173,VANCOUVER RIVER,VANCOUVER RIVER,778,49.92180994,-123.8693139,Stream,900-213488-000000-000000-000000-000000-000000-000000-000000-000000-000000-000000-000000-000000-000000-000000-000000-000000-000000-000000-000000,900-210100-00000-00000-0000-0000-000-000-000-000-000-000,SOUTHERN MAINLAND-GEORGIA STRAIT_FA_0.x,CK-20,CK,Current,48862,SC,GStr,SC+GStr
174,WILSON CREEK,WILSON CREEK,759,49.43848024,-123.7098832,Stream,900-127206-000000-000000-000000-000000-000000-000000-000000-000000-000000-000000-000000-000000-000000-000000-000000-000000-000000-000000-000000,900-119900-00000-00000-0000-0000-000-000-000-000-000-000,SOUTHERN MAINLAND-GEORGIA STRAIT_FA_0.x,CK-20,CK,Current,48662,SC,GStr,SC+GStr
175,GOLDSTREAM RIVER,GOLDSTREAM RIVER,1211,48.48517285,-123.5483606,Stream,920-209673-000000-000000-000000-000000-000000-000000-000000-000000-000000-000000-000000-000000-000000-000000-000000-000000-000000-000000-000000,920-211900-00000-00000-0000-0000-000-000-000-000-000-000,EAST VANCOUVER ISLAND-GOLDSTREAM_FA_0.x,CK-21,CK,Current,40053,EVI,GStr,EVI+GStr
176,TOD CREEK,TOD CREEK,1212,48.55911497,-123.4643318,Stream,920-194106-000000-000000-000000-000000-000000-000000-000000-000000-000000-000000-000000-000000-000000-000000-000000-000000-000000-000000-000000,920-195500-00000-00000-0000-0000-000-000-000-000-000-000,EAST VANCOUVER ISLAND-GOLDSTREAM_FA_0.x,CK-21,CK,Current,40063,EVI,GStr,EVI+GStr
177,COWICHAN RIVER,COWICHAN RIVER,1208,48.75324893,-123.6363173,Stream,920-252823-000000-000000-000000-000000-000000-000000-000000-000000-000000-000000-000000-000000-000000-000000-000000-000000-000000-000000-000000,920-257700-00000-00000-0000-0000-000-000-000-000-000-000,EAST VANCOUVER ISLAND-COWICHAN AND KOKSILAH_FA_0.x,CK-22,CK,Current,40024,EVI,GStr,EVI+GStr
178,COWICHAN RIVER,COWICHAN RIVER,1208,48.75324893,-123.6363173,Stream,920-252823-000000-000000-000000-000000-000000-000000-000000-000000-000000-000000-000000-000000-000000-000000-000000-000000-000000-000000-000000,920-257700-00000-00000-0000-0000-000-000-000-000-000-000,EAST VANCOUVER ISLAND-COWICHAN AND KOKSILAH_FA_0.x,CK-22,CK,Current,40023,EVI,GStr,EVI+GStr
179,KOKSILAH RIVER,KOKSILAH RIVER,1209,48.76235249,-123.6509906,Stream,920-252823-022807-000000-000000-000000-000000-000000-000000-000000-000000-000000-000000-000000-000000-000000-000000-000000-000000-000000-000000,920-257700-02300-00000-0000-0000-000-000-000-000-000-000,EAST VANCOUVER ISLAND-COWICHAN AND KOKSILAH_FA_0.x,CK-22,CK,Current,40033,EVI,GStr,EVI+GStr
180,MESACHIE RIVER,,2627,48.81603231,-124.1260462,Stream,920-252823-679782-109044-000000-000000-000000-000000-000000-000000-000000-000000-000000-000000-000000-000000-000000-000000-000000-000000-000000,920-257700-68500-02300-0000-0000-000-000-000-000-000-000,EAST VANCOUVER ISLAND-COWICHAN AND KOKSILAH_FA_0.x,CK-22,CK,Current,164,EVI,GStr,EVI+GStr
181,PATRICIA CREEK,,2622,48.80629783,-124.1398162,Stream,920-252823-679782-169193-000000-000000-000000-000000-000000-000000-000000-000000-000000-000000-000000-000000-000000-000000-000000-000000-000000,920-257700-68500-10200-0000-0000-000-000-000-000-000-000,EAST VANCOUVER ISLAND-COWICHAN AND KOKSILAH_FA_0.x,CK-22,CK,Current,214,EVI,GStr,EVI+GStr
182,ROBERTSON RIVER,ROBERTSON RIVER,2621,48.81655357,-124.1352682,Stream,920-252823-679782-000000-000000-000000-000000-000000-000000-000000-000000-000000-000000-000000-000000-000000-000000-000000-000000-000000-000000,920-257700-68500-00000-0000-0000-000-000-000-000-000-000,EAST VANCOUVER ISLAND-COWICHAN AND KOKSILAH_FA_0.x,CK-22,CK,Current,234,EVI,GStr,EVI+GStr
183,SHAW CREEK,SHAW CREEK,2626,48.91739326,-124.414901,Stream,920-252823-961884-000000-000000-000000-000000-000000-000000-000000-000000-000000-000000-000000-000000-000000-000000-000000-000000-000000-000000,920-257700-96000-00000-0000-0000-000-000-000-000-000-000,EAST VANCOUVER ISLAND-COWICHAN AND KOKSILAH_FA_0.x,CK-22,CK,Current,244,EVI,GStr,EVI+GStr
184,NANAIMO RIVER - UPPER,NANAIMO RIVER,23735,49.09187318,-124.2284975,Stream Segment,920-388982-000000-000000-000000-000000-000000-000000-000000-000000-000000-000000-000000-000000-000000-000000-000000-000000-000000-000000-000000,920-384400-00000-00000-0000-0000-000-000-000-000-000-000,EAST VANCOUVER ISLAND-GEORGIA STRAIT_SU_0.3,CK-83,CK,Current,3333,EVI,GStr,EVI+GStr
185,BONELL CREEK,BONELL CREEK,1187,49.265725,-124.1913519,Stream,920-432167-000000-000000-000000-000000-000000-000000-000000-000000-000000-000000-000000-000000-000000-000000-000000-000000-000000-000000-000000,920-427000-00000-00000-0000-0000-000-000-000-000-000-000,EAST VANCOUVER ISLAND-NANAIMO AND CHEMAINUS_FA_0.x,CK-25,CK,Current,51448,EVI,GStr,EVI+GStr
186,CHEMAINUS RIVER,CHEMAINUS RIVER,1204,48.89792583,-123.6731808,Stream,920-302830-000000-000000-000000-000000-000000-000000-000000-000000-000000-000000-000000-000000-000000-000000-000000-000000-000000-000000-000000,920-303500-00000-00000-0000-0000-000-000-000-000-000-000,EAST VANCOUVER ISLAND-NANAIMO AND CHEMAINUS_FA_0.x,CK-25,CK,Current,39984,EVI,GStr,EVI+GStr
187,HASLAM CREEK,HASLAM CREEK,1195,49.08008788,-123.86252,Stream,920-388982-116625-000000-000000-000000-000000-000000-000000-000000-000000-000000-000000-000000-000000-000000-000000-000000-000000-000000-000000,920-384400-11200-00000-0000-0000-000-000-000-000-000-000,EAST VANCOUVER ISLAND-NANAIMO AND CHEMAINUS_FA_0.x,CK-25,CK,Current,51528,EVI,GStr,EVI+GStr
188,MILLSTONE RIVER,MILLSTONE RIVER,1191,49.17259598,-123.9439442,Stream,920-400452-000000-000000-000000-000000-000000-000000-000000-000000-000000-000000-000000-000000-000000-000000-000000-000000-000000-000000-000000,920-395400-00000-00000-0000-0000-000-000-000-000-000-000,EAST VANCOUVER ISLAND-NANAIMO AND CHEMAINUS_FA_0.x,CK-25,CK,Current,51488,EVI,GStr,EVI+GStr
189,NANAIMO RIVER,NANAIMO RIVER,1194,49.13837819,-123.8958267,Stream,920-388982-000000-000000-000000-000000-000000-000000-000000-000000-000000-000000-000000-000000-000000-000000-000000-000000-000000-000000-000000,920-384400-00000-00000-0000-0000-000-000-000-000-000-000,EAST VANCOUVER ISLAND-NANAIMO AND CHEMAINUS_FA_0.x,CK-25,CK,Current,51519,EVI,GStr,EVI+GStr
190,NAPOLEON CREEK,,373,49.06983501,-123.8652139,Stream,920-388982-116625-056630-000000-000000-000000-000000-000000-000000-000000-000000-000000-000000-000000-000000-000000-000000-000000-000000-000000,920-384400-11200-05600-0000-0000-000-000-000-000-000-000,EAST VANCOUVER ISLAND-NANAIMO AND CHEMAINUS_FA_0.x,CK-25,CK,Current,45722,EVI,GStr,EVI+GStr
191,BLACK CREEK,BLACK CREEK,1151,49.85342635,-125.1002478,Stream,920-599397-000000-000000-000000-000000-000000-000000-000000-000000-000000-000000-000000-000000-000000-000000-000000-000000-000000-000000-000000,920-595100-00000-00000-0000-0000-000-000-000-000-000-000,EAST VANCOUVER ISLAND-QUALICUM AND PUNTLEDGE_FA_0.x,CK-27,CK,Current,53018,EVI,GStr,EVI+GStr
192,ENGLISHMAN RIVER,ENGLISHMAN RIVER,1184,49.32530375,-124.2916648,Stream,920-470275-000000-000000-000000-000000-000000-000000-000000-000000-000000-000000-000000-000000-000000-000000-000000-000000-000000-000000-000000,920-462800-00000-00000-0000-0000-000-000-000-000-000-000,EAST VANCOUVER ISLAND-QUALICUM AND PUNTLEDGE_FA_0.x,CK-27,CK,Current,51418,EVI,GStr,EVI+GStr
193,LITTLE QUALICUM RIVER,LITTLE QUALICUM RIVER,1181,49.3651022,-124.4948284,Stream,920-490278-000000-000000-000000-000000-000000-000000-000000-000000-000000-000000-000000-000000-000000-000000-000000-000000-000000-000000-000000,920-481800-00000-00000-0000-0000-000-000-000-000-000-000,EAST VANCOUVER ISLAND-QUALICUM AND PUNTLEDGE_FA_0.x,CK-27,CK,Current,51388,EVI,GStr,EVI+GStr
194,MORRISON CREEK,MORRISON CREEK,1160,49.68891592,-125.0137395,Stream,920-559826-984406-044942-000000-000000-000000-000000-000000-000000-000000-000000-000000-000000-000000-000000-000000-000000-000000-000000-000000,920-553200-94200-04800-0000-0000-000-000-000-000-000-000,EAST VANCOUVER ISLAND-QUALICUM AND PUNTLEDGE_FA_0.x,CK-27,CK,Current,53108,EVI,GStr,EVI+GStr
195,NANOOSE CREEK,NANOOSE CREEK,1186,49.26745399,-124.1928098,Stream,920-432397-000000-000000-000000-000000-000000-000000-000000-000000-000000-000000-000000-000000-000000-000000-000000-000000-000000-000000-000000,920-427200-00000-00000-0000-0000-000-000-000-000-000-000,EAST VANCOUVER ISLAND-QUALICUM AND PUNTLEDGE_FA_0.x,CK-27,CK,Current,51438,EVI,GStr,EVI+GStr
196,NILE CREEK,NILE CREEK,1178,49.42027162,-124.6403501,Stream,920-502507-000000-000000-000000-000000-000000-000000-000000-000000-000000-000000-000000-000000-000000-000000-000000-000000-000000-000000-000000,920-494300-00000-00000-0000-0000-000-000-000-000-000-000,EAST VANCOUVER ISLAND-QUALICUM AND PUNTLEDGE_FA_0.x,CK-27,CK,Current,51358,EVI,GStr,EVI+GStr
197,OYSTER RIVER,OYSTER RIVER,1149,49.87257621,-125.1160697,Stream,920-602544-000000-000000-000000-000000-000000-000000-000000-000000-000000-000000-000000-000000-000000-000000-000000-000000-000000-000000-000000,920-600400-00000-00000-0000-0000-000-000-000-000-000-000,EAST VANCOUVER ISLAND-QUALICUM AND PUNTLEDGE_FA_0.x,CK-27,CK,Current,52998,EVI,GStr,EVI+GStr
198,PUNTLEDGE RIVER,PUNTLEDGE RIVER,1156,49.69591542,-124.9949375,Stream,920-559826-984406-000000-000000-000000-000000-000000-000000-000000-000000-000000-000000-000000-000000-000000-000000-000000-000000-000000-000000,920-553200-94200-00000-0000-0000-000-000-000-000-000-000,EAST VANCOUVER ISLAND-QUALICUM AND PUNTLEDGE_FA_0.x,CK-27,CK,Current,3331,,,
199,PUNTLEDGE RIVER,PUNTLEDGE RIVER,1156,49.69591542,-124.9949375,Stream,920-559826-984406-000000-000000-000000-000000-000000-000000-000000-000000-000000-000000-000000-000000-000000-000000-000000-000000-000000-000000,920-553200-94200-00000-0000-0000-000-000-000-000-000-000,EAST VANCOUVER ISLAND-QUALICUM AND PUNTLEDGE_FA_0.x,CK-27,CK,Current,53069,EVI,GStr,EVI+GStr
200,QUALICUM RIVER,QUALICUM RIVER,1179,49.39818979,-124.6105447,Stream,920-499091-000000-000000-000000-000000-000000-000000-000000-000000-000000-000000-000000-000000-000000-000000-000000-000000-000000-000000-000000,920-490700-00000-00000-0000-0000-000-000-000-000-000-000,EAST VANCOUVER ISLAND-QUALICUM AND PUNTLEDGE_FA_0.x,CK-27,CK,Current,51368,EVI,GStr,EVI+GStr
201,ROSEWALL CREEK,ROSEWALL CREEK,1172,49.46668516,-124.7786389,Stream,920-519315-000000-000000-000000-000000-000000-000000-000000-000000-000000-000000-000000-000000-000000-000000-000000-000000-000000-000000-000000,920-510600-00000-00000-0000-0000-000-000-000-000-000-000,EAST VANCOUVER ISLAND-QUALICUM AND PUNTLEDGE_FA_0.x,CK-27,CK,Current,51298,EVI,GStr,EVI+GStr
202,SIMMS CREEK,SIMMS CREEK,1145,49.9790359,-125.221839,Stream,920-617535-000000-000000-000000-000000-000000-000000-000000-000000-000000-000000-000000-000000-000000-000000-000000-000000-000000-000000-000000,920-616300-00000-00000-0000-0000-000-000-000-000-000-000,EAST VANCOUVER ISLAND-QUALICUM AND PUNTLEDGE_FA_0.x,CK-27,CK,Current,52958,EVI,GStr,EVI+GStr
203,TRENT RIVER,TRENT RIVER,1164,49.64412312,-124.9300627,Stream,920-553164-000000-000000-000000-000000-000000-000000-000000-000000-000000-000000-000000-000000-000000-000000-000000-000000-000000-000000-000000,920-545800-00000-00000-0000-0000-000-000-000-000-000-000,EAST VANCOUVER ISLAND-QUALICUM AND PUNTLEDGE_FA_0.x,CK-27,CK,Current,52038,EVI,GStr,EVI+GStr
204,TSABLE RIVER,TSABLE RIVER,1166,49.51873293,-124.8299599,Stream,920-535278-000000-000000-000000-000000-000000-000000-000000-000000-000000-000000-000000-000000-000000-000000-000000-000000-000000-000000-000000,920-527600-00000-00000-0000-0000-000-000-000-000-000-000,EAST VANCOUVER ISLAND-QUALICUM AND PUNTLEDGE_FA_0.x,CK-27,CK,Current,52058,EVI,GStr,EVI+GStr
205,TSOLUM RIVER,TSOLUM RIVER,1157,49.69576794,-124.9945001,Stream,920-559826-990728-000000-000000-000000-000000-000000-000000-000000-000000-000000-000000-000000-000000-000000-000000-000000-000000-000000-000000,920-553200-94100-00000-0000-0000-000-000-000-000-000-000,EAST VANCOUVER ISLAND-QUALICUM AND PUNTLEDGE_FA_0.x,CK-27,CK,Current,53078,EVI,GStr,EVI+GStr
206,WILLOW CREEK,WILLOW CREEK,1146,49.96588191,-125.2083355,Stream,920-615785-000000-000000-000000-000000-000000-000000-000000-000000-000000-000000-000000-000000-000000-000000-000000-000000-000000-000000-000000,920-614400-00000-00000-0000-0000-000-000-000-000-000-000,EAST VANCOUVER ISLAND-QUALICUM AND PUNTLEDGE_FA_0.x,CK-27,CK,Current,52968,EVI,GStr,EVI+GStr
207,WOODS CREEK,WOODS CREEK,1147,49.9272075,-125.1824185,Stream,920-611193-000000-000000-000000-000000-000000-000000-000000-000000-000000-000000-000000-000000-000000-000000-000000-000000-000000-000000-000000,920-609500-00000-00000-0000-0000-000-000-000-000-000-000,EAST VANCOUVER ISLAND-QUALICUM AND PUNTLEDGE_FA_0.x,CK-27,CK,Current,52978,EVI,GStr,EVI+GStr
208,AHNUHATI RIVER,AHNUHATI RIVER,852,50.89044697,-125.6396889,Stream,900-605602-000000-000000-000000-000000-000000-000000-000000-000000-000000-000000-000000-000000-000000-000000-000000-000000-000000-000000-000000,900-603000-00000-00000-0000-0000-000-000-000-000-000-000,SOUTHERN MAINLAND-SOUTHERN FJORDS_FA_0.x,CK-28,CK,Current,50898,SC,SFj,SC+SFj
209,AHTA RIVER,AHTA RIVER,861,50.86966942,-126.1656284,Stream,900-642105-000000-000000-000000-000000-000000-000000-000000-000000-000000-000000-000000-000000-000000-000000-000000-000000-000000-000000-000000,900-640400-00000-00000-0000-0000-000-000-000-000-000-000,SOUTHERN MAINLAND-SOUTHERN FJORDS_FA_0.x,CK-28,CK,Current,50988,SC,SFj,SC+SFj
210,APPLE RIVER,APPLE RIVER,828,50.71691485,-125.4155756,Stream,900-473087-000000-000000-000000-000000-000000-000000-000000-000000-000000-000000-000000-000000-000000-000000-000000-000000-000000-000000-000000,900-469600-00000-00000-0000-0000-000-000-000-000-000-000,SOUTHERN MAINLAND-SOUTHERN FJORDS_FA_0.x,CK-28,CK,Current,50658,SC,SFj,SC+SFj
211,FANNY BAY CREEK,,825,50.53092131,-125.4022613,Stream,900-452137-000000-000000-000000-000000-000000-000000-000000-000000-000000-000000-000000-000000-000000-000000-000000-000000-000000-000000-000000,,SOUTHERN MAINLAND-SOUTHERN FJORDS_FA_0.x,CK-28,CK,Current,50628,SC,SFj,SC+SFj
212,FRANKLIN RIVER,FRANKLIN RIVER,849,51.07849737,-125.5670589,Stream,900-592523-000000-000000-000000-000000-000000-000000-000000-000000-000000-000000-000000-000000-000000-000000-000000-000000-000000-000000-000000,900-589500-00000-00000-0000-0000-000-000-000-000-000-000,SOUTHERN MAINLAND-SOUTHERN FJORDS_FA_0.x,CK-28,CK,Current,50868,SC,SFj,SC+SFj
213,FRAZER CREEK,FRAZER CREEK,830,50.71999364,-125.4784709,Stream,900-474796-003023-000000-000000-000000-000000-000000-000000-000000-000000-000000-000000-000000-000000-000000-000000-000000-000000-000000-000000,900-471200-00800-00000-0000-0000-000-000-000-000-000-000,SOUTHERN MAINLAND-SOUTHERN FJORDS_FA_0.x,CK-28,CK,Current,50678,SC,SFj,SC+SFj
214,FULMORE RIVER,FULMORE RIVER,836,50.56122211,-125.9381469,Stream,900-523991-000000-000000-000000-000000-000000-000000-000000-000000-000000-000000-000000-000000-000000-000000-000000-000000-000000-000000-000000,900-521100-00000-00000-0000-0000-000-000-000-000-000-000,SOUTHERN MAINLAND-SOUTHERN FJORDS_FA_0.x,CK-28,CK,Current,50738,SC,SFj,SC+SFj
215,GLENDALE CREEK,GLENDALE CREEK,847,50.65126838,-125.7247365,Stream,900-572535-088296-000000-000000-000000-000000-000000-000000-000000-000000-000000-000000-000000-000000-000000-000000-000000-000000-000000-000000,900-569800-08600-00000-0000-0000-000-000-000-000-000-000,SOUTHERN MAINLAND-SOUTHERN FJORDS_FA_0.x,CK-28,CK,Current,50848,SC,SFj,SC+SFj
216,HEYDON CREEK,HEYDON CREEK,831,50.57709558,-125.5753906,Stream,900-481198-000000-000000-000000-000000-000000-000000-000000-000000-000000-000000-000000-000000-000000-000000-000000-000000-000000-000000-000000,900-477600-00000-00000-0000-0000-000-000-000-000-000-000,SOUTHERN MAINLAND-SOUTHERN FJORDS_FA_0.x,CK-28,CK,Current,50688,SC,SFj,SC+SFj
217,KAKWEIKEN RIVER,KAKWEIKEN RIVER,860,50.80668948,-126.024264,Stream,900-634559-000000-000000-000000-000000-000000-000000-000000-000000-000000-000000-000000-000000-000000-000000-000000-000000-000000-000000-000000,900-632100-00000-00000-0000-0000-000-000-000-000-000-000,SOUTHERN MAINLAND-SOUTHERN FJORDS_FA_0.x,CK-28,CK,Current,50978,SC,SFj,SC+SFj
218,KINGCOME RIVER,KINGCOME RIVER,872,50.9273143,-126.1874299,Stream,900-680928-000000-000000-000000-000000-000000-000000-000000-000000-000000-000000-000000-000000-000000-000000-000000-000000-000000-000000-000000,900-681600-00000-00000-0000-0000-000-000-000-000-000-000,SOUTHERN MAINLAND-SOUTHERN FJORDS_FA_0.x,CK-28,CK,Current,51098,SC,SFj,SC+SFj
219,KWALATE CREEK,KWALATE CREEK,853,50.78124353,-125.6863106,Stream,900-611863-000000-000000-000000-000000-000000-000000-000000-000000-000000-000000-000000-000000-000000-000000-000000-000000-000000-000000-000000,900-608900-00000-00000-0000-0000-000-000-000-000-000-000,SOUTHERN MAINLAND-SOUTHERN FJORDS_FA_0.x,CK-28,CK,Current,50908,SC,SFj,SC+SFj
220,ORFORD RIVER,ORFORD RIVER,816,50.59779947,-124.8574532,Stream,900-391855-000000-000000-000000-000000-000000-000000-000000-000000-000000-000000-000000-000000-000000-000000-000000-000000-000000-000000-000000,900-391500-00000-00000-0000-0000-000-000-000-000-000-000,SOUTHERN MAINLAND-SOUTHERN FJORDS_FA_0.x,CK-28,CK,Current,50538,SC,SFj,SC+SFj
221,PHILLIPS RIVER,PHILLIPS RIVER,824,50.5684244,-125.365434,Stream,900-449592-000000-000000-000000-000000-000000-000000-000000-000000-000000-000000-000000-000000-000000-000000-000000-000000-000000-000000-000000,900-447800-00000-00000-0000-0000-000-000-000-000-000-000,SOUTHERN MAINLAND-SOUTHERN FJORDS_FA_0.x,CK-28,CK,Current,50619,SC,SFj,SC+SFj
222,PHILLIPS RIVER,PHILLIPS RIVER,824,50.5684244,-125.365434,Stream,900-449592-000000-000000-000000-000000-000000-000000-000000-000000-000000-000000-000000-000000-000000-000000-000000-000000-000000-000000-000000,900-447800-00000-00000-0000-0000-000-000-000-000-000-000,SOUTHERN MAINLAND-SOUTHERN FJORDS_FA_0.x,CK-28,CK,Current,50618,SC,SFj,SC+SFj
223,READ CREEK,READ CREEK,833,50.5363945,-125.7790529,Stream,900-504444-000000-000000-000000-000000-000000-000000-000000-000000-000000-000000-000000-000000-000000-000000-000000-000000-000000-000000-000000,900-501200-00000-00000-0000-0000-000-000-000-000-000-000,SOUTHERN MAINLAND-SOUTHERN FJORDS_FA_0.x,CK-28,CK,Current,50708,SC,SFj,SC+SFj
224,ROBBERS KNOB CREEK,,837,50.52093894,-126.0552791,Stream,900-527134-000000-000000-000000-000000-000000-000000-000000-000000-000000-000000-000000-000000-000000-000000-000000-000000-000000-000000-000000,900-524300-00000-00000-0000-0000-000-000-000-000-000-000,SOUTHERN MAINLAND-SOUTHERN FJORDS_FA_0.x,CK-28,CK,Current,50748,SC,SFj,SC+SFj
225,SEYMOUR RIVER,SEYMOUR RIVER,897,51.19330668,-126.6725475,Stream,900-874507-000000-000000-000000-000000-000000-000000-000000-000000-000000-000000-000000-000000-000000-000000-000000-000000-000000-000000-000000,900-875400-00000-00000-0000-0000-000-000-000-000-000-000,SOUTHERN MAINLAND-SOUTHERN FJORDS_FA_0.x,CK-28,CK,Current,49532,SC,SFj,SC+SFj
226,SHOAL CREEK,SHOAL CREEK,835,50.5483265,-125.9052208,Stream,900-522310-000000-000000-000000-000000-000000-000000-000000-000000-000000-000000-000000-000000-000000-000000-000000-000000-000000-000000-000000,900-519300-00000-00000-0000-0000-000-000-000-000-000-000,SOUTHERN MAINLAND-SOUTHERN FJORDS_FA_0.x,CK-28,CK,Current,50728,SC,SFj,SC+SFj
227,SIM RIVER,SIM RIVER,851,51.02252561,-125.6123586,Stream,900-598651-000000-000000-000000-000000-000000-000000-000000-000000-000000-000000-000000-000000-000000-000000-000000-000000-000000-000000-000000,900-596000-00000-00000-0000-0000-000-000-000-000-000-000,SOUTHERN MAINLAND-SOUTHERN FJORDS_FA_0.x,CK-28,CK,Current,50888,SC,SFj,SC+SFj
228,SOUTHGATE RIVER,SOUTHGATE RIVER,817,50.88612491,-124.7874905,Stream,900-405080-000000-000000-000000-000000-000000-000000-000000-000000-000000-000000-000000-000000-000000-000000-000000-000000-000000-000000-000000,900-404100-00000-00000-0000-0000-000-000-000-000-000-000,SOUTHERN MAINLAND-SOUTHERN FJORDS_FA_0.x,CK-28,CK,Current,50548,SC,SFj,SC+SFj
229,STAFFORD RIVER,STAFFORD RIVER,829,50.7201945,-125.476337,Stream,900-474796-000000-000000-000000-000000-000000-000000-000000-000000-000000-000000-000000-000000-000000-000000-000000-000000-000000-000000-000000,900-471200-00000-00000-0000-0000-000-000-000-000-000-000,SOUTHERN MAINLAND-SOUTHERN FJORDS_FA_0.x,CK-28,CK,Current,50668,SC,SFj,SC+SFj
230,TEAQUAHAN RIVER,TEAQUAHAN RIVER,818,50.93128231,-124.830976,Stream,900-407171-000000-000000-000000-000000-000000-000000-000000-000000-000000-000000-000000-000000-000000-000000-000000-000000-000000-000000-000000,900-406500-00000-00000-0000-0000-000-000-000-000-000-000,SOUTHERN MAINLAND-SOUTHERN FJORDS_FA_0.x,CK-28,CK,Current,50558,SC,SFj,SC+SFj
231,TUNA RIVER,TUNA RIVER,834,50.49270543,-125.9767987,Stream,900-513545-000000-000000-000000-000000-000000-000000-000000-000000-000000-000000-000000-000000-000000-000000-000000-000000-000000-000000-000000,900-510300-00000-00000-0000-0000-000-000-000-000-000-000,SOUTHERN MAINLAND-SOUTHERN FJORDS_FA_0.x,CK-28,CK,Current,50718,SC,SFj,SC+SFj
232,WAKEMAN RIVER,WAKEMAN RIVER,874,51.03800007,-126.5181888,Stream,900-690764-000000-000000-000000-000000-000000-000000-000000-000000-000000-000000-000000-000000-000000-000000-000000-000000-000000-000000-000000,900-692800-00000-00000-0000-0000-000-000-000-000-000-000,SOUTHERN MAINLAND-SOUTHERN FJORDS_FA_0.x,CK-28,CK,Current,51118,SC,SFj,SC+SFj
233,WARNER BAY CREEK,,895,51.02964078,-127.0924318,Stream,900-848644-000000-000000-000000-000000-000000-000000-000000-000000-000000-000000-000000-000000-000000-000000-000000-000000-000000-000000-000000,900-849500-00000-00000-0000-0000-000-000-000-000-000-000,SOUTHERN MAINLAND-SOUTHERN FJORDS_FA_0.x,CK-28,CK,Current,49512,SC,SFj,SC+SFj
234,WAUMP CREEK,WAUMP CREEK,905,51.19005388,-126.9226153,Stream,900-947915-000000-000000-000000-000000-000000-000000-000000-000000-000000-000000-000000-000000-000000-000000-000000-000000-000000-000000-000000,900-948000-00000-00000-0000-0000-000-000-000-000-000-000,SOUTHERN MAINLAND-SOUTHERN FJORDS_FA_0.x,CK-28,CK,Current,49612,SC,SFj,SC+SFj
235,ADAM RIVER,ADAM RIVER,1119,50.4658761,-126.277488,Stream,920-757566-000000-000000-000000-000000-000000-000000-000000-000000-000000-000000-000000-000000-000000-000000-000000-000000-000000-000000-000000,920-758000-00000-00000-0000-0000-000-000-000-000-000-000,EAST VANCOUVER ISLAND-NORTH_FA_0.x,CK-29,CK,Current,52698,EVI,SFj,EVI+SFj
236,AMOR DE COSMOS CREEK,AMOR DE COSMOS CREEK,1123,50.35706233,-125.6853363,Stream,920-698537-000000-000000-000000-000000-000000-000000-000000-000000-000000-000000-000000-000000-000000-000000-000000-000000-000000-000000-000000,920-700700-00000-00000-0000-0000-000-000-000-000-000-000,EAST VANCOUVER ISLAND-NORTH_FA_0.x,CK-29,CK,Current,52738,EVI,SFj,EVI+SFj
237,CAMPBELL RIVER,CAMPBELL RIVER,1141,50.04871847,-125.2584714,Stream,920-627155-000000-000000-000000-000000-000000-000000-000000-000000-000000-000000-000000-000000-000000-000000-000000-000000-000000-000000-000000,920-627900-00000-00000-0000-0000-000-000-000-000-000-000,EAST VANCOUVER ISLAND-NORTH_FA_0.x,CK-29,CK,Current,52918,EVI,GStr,EVI+GStr
238,CLUXEWE RIVER,CLUXEWE RIVER,1109,50.61172181,-127.1775195,Stream,920-850204-000000-000000-000000-000000-000000-000000-000000-000000-000000-000000-000000-000000-000000-000000-000000-000000-000000-000000-000000,920-851500-00000-00000-0000-0000-000-000-000-000-000-000,EAST VANCOUVER ISLAND-NORTH_FA_0.x,CK-29,CK,Current,52603,EVI,SFj,EVI+SFj
239,DREW CREEK,DREW CREEK,1135,50.08877979,-125.1923656,Stream,905-405793-902265-000000-000000-000000-000000-000000-000000-000000-000000-000000-000000-000000-000000-000000-000000-000000-000000-000000-000000,905-291000-89600-00000-0000-0000-000-000-000-000-000-000,EAST VANCOUVER ISLAND-NORTH_FA_0.x,CK-29,CK,Current,52858,SC,GStr,SC+GStr
240,EVE RIVER,EVE RIVER,1120,50.4378363,-126.2467076,Stream,920-757566-086842-000000-000000-000000-000000-000000-000000-000000-000000-000000-000000-000000-000000-000000-000000-000000-000000-000000-000000,920-758000-11400-00000-0000-0000-000-000-000-000-000-000,EAST VANCOUVER ISLAND-NORTH_FA_0.x,CK-29,CK,Current,52708,EVI,SFj,EVI+SFj
241,GRANITE BAY CREEK,,1136,50.23696592,-125.3037936,Stream,905-405793-365383-000000-000000-000000-000000-000000-000000-000000-000000-000000-000000-000000-000000-000000-000000-000000-000000-000000-000000,905-291000-35900-00000-0000-0000-000-000-000-000-000-000,EAST VANCOUVER ISLAND-NORTH_FA_0.x,CK-29,CK,Current,52868,SC,SFj,SC+SFj
242,KEOGH RIVER,KEOGH RIVER,1108,50.67776703,-127.3484281,Stream,920-866395-000000-000000-000000-000000-000000-000000-000000-000000-000000-000000-000000-000000-000000-000000-000000-000000-000000-000000-000000,920-866900-00000-00000-0000-0000-000-000-000-000-000-000,EAST VANCOUVER ISLAND-NORTH_FA_0.x,CK-29,CK,Current,52593,EVI,SFj,EVI+SFj
243,KOKISH RIVER,KOKISH RIVER,1115,50.53153385,-126.8716271,Stream,920-810549-000000-000000-000000-000000-000000-000000-000000-000000-000000-000000-000000-000000-000000-000000-000000-000000-000000-000000-000000,920-810900-00000-00000-0000-0000-000-000-000-000-000-000,EAST VANCOUVER ISLAND-NORTH_FA_0.x,CK-29,CK,Current,52663,EVI,SFj,EVI+SFj
244,MCKERCHER CREEK,MCKERCHER CREEK,1134,50.12972011,-125.2392642,Stream,905-405793-854178-000000-000000-000000-000000-000000-000000-000000-000000-000000-000000-000000-000000-000000-000000-000000-000000-000000-000000,905-291000-84800-00000-0000-0000-000-000-000-000-000-000,EAST VANCOUVER ISLAND-NORTH_FA_0.x,CK-29,CK,Current,52848,SC,GStr,SC+GStr
245,MENZIES CREEK,MENZIES CREEK,1139,50.13731398,-125.3911746,Stream,920-644562-000000-000000-000000-000000-000000-000000-000000-000000-000000-000000-000000-000000-000000-000000-000000-000000-000000-000000-000000,920-646600-00000-00000-0000-0000-000-000-000-000-000-000,EAST VANCOUVER ISLAND-NORTH_FA_0.x,CK-29,CK,Current,52898,EVI,GStr,EVI+GStr
246,MOHUN CREEK,MOHUN CREEK,1140,50.11208411,-125.3739984,Stream,920-641351-000000-000000-000000-000000-000000-000000-000000-000000-000000-000000-000000-000000-000000-000000-000000-000000-000000-000000-000000,920-643100-00000-00000-0000-0000-000-000-000-000-000-000,EAST VANCOUVER ISLAND-NORTH_FA_0.x,CK-29,CK,Current,52908,EVI,GStr,EVI+GStr
247,NAHWITTI RIVER,NAHWITTI RIVER,1101,50.85870705,-128.008083,Stream,920-954598-000000-000000-000000-000000-000000-000000-000000-000000-000000-000000-000000-000000-000000-000000-000000-000000-000000-000000-000000,920-953700-00000-00000-0000-0000-000-000-000-000-000-000,EAST VANCOUVER ISLAND-NORTH_FA_0.x,CK-29,CK,Current,52528,EVI,SFj,EVI+SFj
248,NIMPKISH RIVER,NIMPKISH RIVER,1112,50.56666735,-126.9820221,Stream,920-824808-000000-000000-000000-000000-000000-000000-000000-000000-000000-000000-000000-000000-000000-000000-000000-000000-000000-000000-000000,920-825900-00000-00000-0000-0000-000-000-000-000-000-000,EAST VANCOUVER ISLAND-NORTH_FA_0.x,CK-29,CK,Current,52633,EVI,SFj,EVI+SFj
249,QUATSE RIVER,QUATSE RIVER,1106,50.6999019,-127.4801357,Stream,920-895713-000000-000000-000000-000000-000000-000000-000000-000000-000000-000000-000000-000000-000000-000000-000000-000000-000000-000000-000000,920-896200-00000-00000-0000-0000-000-000-000-000-000-000,EAST VANCOUVER ISLAND-NORTH_FA_0.x,CK-29,CK,Current,52573,EVI,SFj,EVI+SFj
250,QUINSAM RIVER,QUINSAM RIVER,1144,50.03756379,-125.2941625,Stream,920-627155-045026-000000-000000-000000-000000-000000-000000-000000-000000-000000-000000-000000-000000-000000-000000-000000-000000-000000-000000,920-627900-03600-00000-0000-0000-000-000-000-000-000-000,EAST VANCOUVER ISLAND-NORTH_FA_0.x,CK-29,CK,Current,52948,EVI,GStr,EVI+GStr
251,SALMON RIVER,SALMON RIVER,1121,50.37311148,-125.9299309,Stream,920-722273-000000-000000-000000-000000-000000-000000-000000-000000-000000-000000-000000-000000-000000-000000-000000-000000-000000-000000-000000,920-725300-00000-00000-0000-0000-000-000-000-000-000-000,EAST VANCOUVER ISLAND-NORTH_FA_0.x,CK-29,CK,Current,52718,EVI,SFj,EVI+SFj
252,TSITIKA RIVER,TSITIKA RIVER,1117,50.48083315,-126.5866313,Stream,920-782999-000000-000000-000000-000000-000000-000000-000000-000000-000000-000000-000000-000000-000000-000000-000000-000000-000000-000000-000000,920-782100-00000-00000-0000-0000-000-000-000-000-000-000,EAST VANCOUVER ISLAND-NORTH_FA_0.x,CK-29,CK,Current,52678,EVI,SFj,EVI+SFj
253,WHITE RIVER,WHITE RIVER,1122,50.30733046,-125.9025875,Stream,920-722273-132687-000000-000000-000000-000000-000000-000000-000000-000000-000000-000000-000000-000000-000000-000000-000000-000000-000000-000000,920-725300-14700-00000-0000-0000-000-000-000-000-000-000,EAST VANCOUVER ISLAND-NORTH_FA_0.x,CK-29,CK,Current,52728,EVI,SFj,EVI+SFj
254,HARRISON RIVER,HARRISON RIVER,179,49.22891514,-121.946601,Stream,100-077501-000000-000000-000000-000000-000000-000000-000000-000000-000000-000000-000000-000000-000000-000000-000000-000000-000000-000000-000000,110-000000-00000-00000-0000-0000-000-000-000-000-000-000,LOWER FRASER RIVER_FA_0.3,CK-3,CK,Current,46034,LFR,GStr,LFR+GStr
255,ATLEO RIVER,ATLEO RIVER,1336,49.36991725,-126.0583364,Stream,930-400575-000000-000000-000000-000000-000000-000000-000000-000000-000000-000000-000000-000000-000000-000000-000000-000000-000000-000000-000000,930-403700-00000-00000-0000-0000-000-000-000-000-000-000,WEST VANCOUVER ISLAND-SOUTH_FA_0.x,CK-31,CK,Current,41133,WVI,WVI,WVI+WVI
256,AYUM CREEK,AYUM CREEK,1219,48.39103117,-123.6584798,Stream,930-021209-000000-000000-000000-000000-000000-000000-000000-000000-000000-000000-000000-000000-000000-000000-000000-000000-000000-000000-000000,930-020300-00000-00000-0000-0000-000-000-000-000-000-000,WEST VANCOUVER ISLAND-SOUTH_FA_0.x,CK-31,CK,Current,40133,WVI,WVI,WVI+WVI
257,BEDWELL RIVER,BEDWELL RIVER,7990630,49.38831365,-125.7596205,Stream,930-350962-000000-000000-000000-000000-000000-000000-000000-000000-000000-000000-000000-000000-000000-000000-000000-000000-000000-000000-000000,930-355300-00000-00000-0000-0000-000-000-000-000-000-000,WEST VANCOUVER ISLAND-SOUTH_FA_0.x,CK-31,CK,Current,45190,WVI,WVI,WVI+WVI
258,BEDWELL RIVER,BEDWELL RIVER,1327,49.36425733,-125.7768433,Stream,930-350962-000000-000000-000000-000000-000000-000000-000000-000000-000000-000000-000000-000000-000000-000000-000000-000000-000000-000000-000000,930-355300-00000-00000-0000-0000-000-000-000-000-000-000,WEST VANCOUVER ISLAND-SOUTH_FA_0.x,CK-31,CK,Current,52318,WVI,WVI,WVI+WVI
259,CAMPUS CREEK,CAMPUS CREEK,1247,48.81378911,-124.6699556,Stream,930-073434-283356-000000-000000-000000-000000-000000-000000-000000-000000-000000-000000-000000-000000-000000-000000-000000-000000-000000-000000,930-071700-28000-00000-0000-0000-000-000-000-000-000-000,WEST VANCOUVER ISLAND-SOUTH_FA_0.x,CK-31,CK,Current,40408,WVI,WVI,WVI+WVI
260,CANOE PASS CREEK,CANOE PASS CREEK,1281,48.95771823,-125.2190425,Stream,930-201925-000000-000000-000000-000000-000000-000000-000000-000000-000000-000000-000000-000000-000000-000000-000000-000000-000000-000000-000000,930-207400-00000-00000-0000-0000-000-000-000-000-000-000,WEST VANCOUVER ISLAND-SOUTH_FA_0.x,CK-31,CK,Current,40728,WVI,WVI,WVI+WVI
261,CARNATION CREEK,CARNATION CREEK,1254,48.91360195,-125.0037843,Stream,930-113555-000000-000000-000000-000000-000000-000000-000000-000000-000000-000000-000000-000000-000000-000000-000000-000000-000000-000000-000000,930-112200-00000-00000-0000-0000-000-000-000-000-000-000,WEST VANCOUVER ISLAND-SOUTH_FA_0.x,CK-31,CK,Current,40478,WVI,WVI,WVI+WVI
262,CATARACT CREEK,CATARACT CREEK,1285,49.01649677,-125.2779667,Stream,930-214171-000000-000000-000000-000000-000000-000000-000000-000000-000000-000000-000000-000000-000000-000000-000000-000000-000000-000000-000000,930-220100-00000-00000-0000-0000-000-000-000-000-000-000,WEST VANCOUVER ISLAND-SOUTH_FA_0.x,CK-31,CK,Current,40768,WVI,WVI,WVI+WVI
263,CAYCUSE RIVER,CAYCUSE RIVER,1246,48.79746198,-124.6828129,Stream,930-073434-258445-000000-000000-000000-000000-000000-000000-000000-000000-000000-000000-000000-000000-000000-000000-000000-000000-000000-000000,930-071700-25700-00000-0000-0000-000-000-000-000-000-000,WEST VANCOUVER ISLAND-SOUTH_FA_0.x,CK-31,CK,Current,40398,WVI,WVI,WVI+WVI
264,CHARTERS RIVER,CHARTERS RIVER,1224,48.41354934,-123.7128537,Stream,930-023810-166984-000000-000000-000000-000000-000000-000000-000000-000000-000000-000000-000000-000000-000000-000000-000000-000000-000000-000000,930-022100-16400-00000-0000-0000-000-000-000-000-000-000,WEST VANCOUVER ISLAND-SOUTH_FA_0.x,CK-31,CK,Current,40183,WVI,WVI,WVI+WVI
265,CHINA CREEK,CHINA CREEK,1259,49.15290903,-124.7905115,Stream,930-133780-000000-000000-000000-000000-000000-000000-000000-000000-000000-000000-000000-000000-000000-000000-000000-000000-000000-000000-000000,930-132300-00000-00000-0000-0000-000-000-000-000-000-000,WEST VANCOUVER ISLAND-SOUTH_FA_0.x,CK-31,CK,Current,40528,WVI,WVI,WVI+WVI
266,CLAYOQUOT RIVER - LOWER,CLAYOQUOT RIVER,1310,49.18338133,-125.5376472,Stream Segment,930-302211-132423-000000-000000-000000-000000-000000-000000-000000-000000-000000-000000-000000-000000-000000-000000-000000-000000-000000-000000,930-306400-13900-00000-0000-0000-000-000-000-000-000-000,WEST VANCOUVER ISLAND-SOUTH_FA_0.x,CK-31,CK,Current,52153,WVI,WVI,WVI+WVI
267,CLAYOQUOT RIVER - UPPER,CLAYOQUOT RIVER,1311,49.20125801,-125.5126189,Stream Segment,930-302211-132423-000000-000000-000000-000000-000000-000000-000000-000000-000000-000000-000000-000000-000000-000000-000000-000000-000000-000000,930-306400-13900-00000-0000-0000-000-000-000-000-000-000,WEST VANCOUVER ISLAND-SOUTH_FA_0.x,CK-31,CK,Current,52163,WVI,WVI,WVI+WVI
268,CLEMENS CREEK,CLEMENS CREEK,2470,49.13563333,-125.137861,Stream,930-164367-991909-000000-000000-000000-000000-000000-000000-000000-000000-000000-000000-000000-000000-000000-000000-000000-000000-000000-000000,930-162500-98800-00000-0000-0000-000-000-000-000-000-000,WEST VANCOUVER ISLAND-SOUTH_FA_0.x,CK-31,CK,Current,131,WVI,WVI,WVI+WVI
269,COEUR D'ALENE CREEK,COEUR D'ALENE CREEK,1278,49.04569594,-125.1381025,Stream,930-187551-000000-000000-000000-000000-000000-000000-000000-000000-000000-000000-000000-000000-000000-000000-000000-000000-000000-000000-000000,930-193200-00000-00000-0000-0000-000-000-000-000-000-000,WEST VANCOUVER ISLAND-SOUTH_FA_0.x,CK-31,CK,Current,40698,WVI,WVI,WVI+WVI
270,COLEMAN CREEK,COLEMAN CREEK,1257,49.00626566,-124.8577044,Stream,930-125279-000000-000000-000000-000000-000000-000000-000000-000000-000000-000000-000000-000000-000000-000000-000000-000000-000000-000000-000000,930-124200-00000-00000-0000-0000-000-000-000-000-000-000,WEST VANCOUVER ISLAND-SOUTH_FA_0.x,CK-31,CK,Current,40508,WVI,WVI,WVI+WVI
271,CONSINKA CREEK,CONSINKA CREEK,1255,48.9359891,-124.9816979,Stream,930-118343-000000-000000-000000-000000-000000-000000-000000-000000-000000-000000-000000-000000-000000-000000-000000-000000-000000-000000-000000,930-117000-05400-00000-0000-0000-000-000-000-000-000-000,WEST VANCOUVER ISLAND-SOUTH_FA_0.x,CK-31,CK,Current,40488,WVI,WVI,WVI+WVI
272,COUS CREEK,COUS CREEK,1267,49.18370799,-124.8296651,Stream,930-144842-000000-000000-000000-000000-000000-000000-000000-000000-000000-000000-000000-000000-000000-000000-000000-000000-000000-000000-000000,930-143000-00000-00000-0000-0000-000-000-000-000-000-000,WEST VANCOUVER ISLAND-SOUTH_FA_0.x,CK-31,CK,Current,40593,WVI,WVI,WVI+WVI
273,CYPRE RIVER,CYPRE RIVER,1329,49.27728084,-125.9196799,Stream,930-365210-000000-000000-000000-000000-000000-000000-000000-000000-000000-000000-000000-000000-000000-000000-000000-000000-000000-000000-000000,930-368500-00000-00000-0000-0000-000-000-000-000-000-000,WEST VANCOUVER ISLAND-SOUTH_FA_0.x,CK-31,CK,Current,52338,WVI,WVI,WVI+WVI
274,DE MAMIEL CREEK,DE MAMIEL CREEK,1222,48.38983341,-123.7087257,Stream,930-023810-032234-000000-000000-000000-000000-000000-000000-000000-000000-000000-000000-000000-000000-000000-000000-000000-000000-000000-000000,930-022100-02800-00000-0000-0000-000-000-000-000-000-000,WEST VANCOUVER ISLAND-SOUTH_FA_0.x,CK-31,CK,Current,40163,WVI,WVI,WVI+WVI
275,DEER CREEK,DEER CREEK,1264,49.33117161,-124.9150558,Stream,930-139262-993282-107938-000000-000000-000000-000000-000000-000000-000000-000000-000000-000000-000000-000000-000000-000000-000000-000000-000000,930-137400-99500-08700-0000-0000-000-000-000-000-000-000,WEST VANCOUVER ISLAND-SOUTH_FA_0.x,CK-31,CK,Current,40569,WVI,WVI,WVI+WVI
276,DOOBAH CREEK,DOOBAH CREEK,1243,48.74012472,-124.737508,Stream,930-073434-165378-000000-000000-000000-000000-000000-000000-000000-000000-000000-000000-000000-000000-000000-000000-000000-000000-000000-000000,930-071700-15800-00000-0000-0000-000-000-000-000-000-000,WEST VANCOUVER ISLAND-SOUTH_FA_0.x,CK-31,CK,Current,40373,WVI,WVI,WVI+WVI
277,DRINKWATER CREEK,DRINKWATER CREEK,1266,49.39560137,-125.4165989,Stream,930-139262-993282-984566-000000-000000-000000-000000-000000-000000-000000-000000-000000-000000-000000-000000-000000-000000-000000-000000-000000,930-137400-99500-78800-0000-0000-000-000-000-000-000-000,WEST VANCOUVER ISLAND-SOUTH_FA_0.x,CK-31,CK,Current,40583,WVI,WVI,WVI+WVI
278,EFFINGHAM RIVER,EFFINGHAM RIVER,1279,49.09534128,-125.200767,Stream,930-191124-000000-000000-000000-000000-000000-000000-000000-000000-000000-000000-000000-000000-000000-000000-000000-000000-000000-000000-000000,930-196400-00000-00000-0000-0000-000-000-000-000-000-000,WEST VANCOUVER ISLAND-SOUTH_FA_0.x,CK-31,CK,Current,40708,WVI,WVI,WVI+WVI
279,FRANKLIN RIVER,FRANKLIN RIVER,1258,49.10302885,-124.8169583,Stream,930-130606-000000-000000-000000-000000-000000-000000-000000-000000-000000-000000-000000-000000-000000-000000-000000-000000-000000-000000-000000,930-129400-00000-00000-0000-0000-000-000-000-000-000-000,WEST VANCOUVER ISLAND-SOUTH_FA_0.x,CK-31,CK,Current,40518,WVI,WVI,WVI+WVI
280,GORDON RIVER,GORDON RIVER,1238,48.5763729,-124.4146503,Stream,930-056675-000000-000000-000000-000000-000000-000000-000000-000000-000000-000000-000000-000000-000000-000000-000000-000000-000000-000000-000000,930-054700-00000-00000-0000-0000-000-000-000-000-000-000,WEST VANCOUVER ISLAND-SOUTH_FA_0.x,CK-31,CK,Current,40323,WVI,WVI,WVI+WVI
281,HARRIS CREEK,HARRIS CREEK,1235,48.58229161,-124.275578,Stream,930-055749-213082-000000-000000-000000-000000-000000-000000-000000-000000-000000-000000-000000-000000-000000-000000-000000-000000-000000-000000,930-053800-22100-00000-0000-0000-000-000-000-000-000-000,WEST VANCOUVER ISLAND-SOUTH_FA_0.x,CK-31,CK,Current,40293,WVI,WVI,WVI+WVI
282,HENDERSON LAKE,HENDERSON LAKE,1273,49.0283341,-125.0511539,Lake,930-164367-000000-000000-000000-000000-000000-000000-000000-000000-000000-000000-000000-000000-000000-000000-000000-000000-000000-000000-000000,930-162500-00000-00000-0000-0000-000-000-000-000-000-000,WEST VANCOUVER ISLAND-SOUTH_FA_0.x,CK-31,CK,Current,40648,WVI,WVI,WVI+WVI
283,ICE RIVER,ICE RIVER,1343,49.47413788,-126.2305348,Stream,930-423523-000000-000000-000000-000000-000000-000000-000000-000000-000000-000000-000000-000000-000000-000000-000000-000000-000000-000000-000000,930-426900-00000-00000-0000-0000-000-000-000-000-000-000,WEST VANCOUVER ISLAND-SOUTH_FA_0.x,CK-31,CK,Current,41198,WVI,WVI,WVI+WVI
284,ITATSOO CREEK,ITATSOO CREEK,1294,48.92720166,-125.5041153,Stream,930-232561-000000-000000-000000-000000-000000-000000-000000-000000-000000-000000-000000-000000-000000-000000-000000-000000-000000-000000-000000,930-239300-00000-00000-0000-0000-000-000-000-000-000-000,WEST VANCOUVER ISLAND-SOUTH_FA_0.x,CK-31,CK,Current,39588,WVI,WVI,WVI+WVI
285,KENNEDY LAKE FEEDER STREAMS,,7990617,49.1289267,-125.4355738,Stream,930-302211-399621-000000-000000-000000-000000-000000-000000-000000-000000-000000-000000-000000-000000-000000-000000-000000-000000-000000-000000,930-306400-39000-00000-0000-0000-000-000-000-000-000-000,WEST VANCOUVER ISLAND-SOUTH_FA_0.x,CK-31,CK,Current,52098,WVI,WVI,WVI+WVI
286,KENNEDY RIVER - LOWER,KENNEDY RIVER,1306,49.13655189,-125.6676695,Stream Segment,930-302211-000000-000000-000000-000000-000000-000000-000000-000000-000000-000000-000000-000000-000000-000000-000000-000000-000000-000000-000000,930-306400-00000-00000-0000-0000-000-000-000-000-000-000,WEST VANCOUVER ISLAND-SOUTH_FA_0.x,CK-31,CK,Current,52118,WVI,WVI,WVI+WVI
287,KENNEDY RIVER - UPPER,KENNEDY RIVER,1305,49.12740279,-125.4348961,Stream Segment,930-302211-000000-000000-000000-000000-000000-000000-000000-000000-000000-000000-000000-000000-000000-000000-000000-000000-000000-000000-000000,930-306400-00000-00000-0000-0000-000-000-000-000-000-000,WEST VANCOUVER ISLAND-SOUTH_FA_0.x,CK-31,CK,Current,52108,WVI,WVI,WVI+WVI
288,KLANAWA RIVER,KLANAWA RIVER,1248,48.69869714,-124.9476867,Stream,930-077174-000000-000000-000000-000000-000000-000000-000000-000000-000000-000000-000000-000000-000000-000000-000000-000000-000000-000000-000000,930-075500-00000-00000-0000-0000-000-000-000-000-000-000,WEST VANCOUVER ISLAND-SOUTH_FA_0.x,CK-31,CK,Current,40418,WVI,WVI,WVI+WVI
289,LENS CREEK,LENS CREEK,1237,48.586407,-124.258357,Stream,930-055749-238722-000000-000000-000000-000000-000000-000000-000000-000000-000000-000000-000000-000000-000000-000000-000000-000000-000000-000000,930-053800-25200-00000-0000-0000-000-000-000-000-000-000,WEST VANCOUVER ISLAND-SOUTH_FA_0.x,CK-31,CK,Current,40313,WVI,WVI,WVI+WVI
290,LITTLE TOQUART CREEK,LITTLE TOQUART CREEK,1289,49.04107712,-125.3609243,Stream,930-223732-027604-000000-000000-000000-000000-000000-000000-000000-000000-000000-000000-000000-000000-000000-000000-000000-000000-000000-000000,930-230500-03800-00000-0000-0000-000-000-000-000-000-000,WEST VANCOUVER ISLAND-SOUTH_FA_0.x,CK-31,CK,Current,39538,WVI,WVI,WVI+WVI
291,LUCKY CREEK,LUCKY CREEK,1287,49.02744374,-125.3054012,Stream,930-221312-000000-000000-000000-000000-000000-000000-000000-000000-000000-000000-000000-000000-000000-000000-000000-000000-000000-000000-000000,930-227800-00000-00000-0000-0000-000-000-000-000-000-000,WEST VANCOUVER ISLAND-SOUTH_FA_0.x,CK-31,CK,Current,40788,WVI,WVI,WVI+WVI
292,MACKTUSH CREEK,MACKTUSH CREEK,1269,49.11130692,-124.8264514,Stream,930-148806-000000-000000-000000-000000-000000-000000-000000-000000-000000-000000-000000-000000-000000-000000-000000-000000-000000-000000-000000,930-147000-00000-00000-0000-0000-000-000-000-000-000-000,WEST VANCOUVER ISLAND-SOUTH_FA_0.x,CK-31,CK,Current,40608,WVI,WVI,WVI+WVI
293,MAGGIE RIVER,MAGGIE RIVER,1290,48.98495147,-125.3934898,Stream,930-227126-000000-000000-000000-000000-000000-000000-000000-000000-000000-000000-000000-000000-000000-000000-000000-000000-000000-000000-000000,930-233800-00000-00000-0000-0000-000-000-000-000-000-000,WEST VANCOUVER ISLAND-SOUTH_FA_0.x,CK-31,CK,Current,39548,WVI,WVI,WVI+WVI
